
[{ "_id" : { "$oid" : "5770f18dec2c5aec10d81a0c" }, "date" : "01.08.2013", "body" : "Что за #дебил придумал устраивать ипподром на главной площади страны?", "lat" : "55.7542645", "long" : "37.62019157", "name" : "Aleksey S.", "center" : 1, "dateNumber" : 1375315200000 },
{ "_id" : { "$oid" : "5770f18dec2c5aec10d81a0d" }, "date" : "01.08.2013", "body" : "Весь центр Москвы на ладони", "lat" : "55.75866169", "long" : "37.61301459", "name" : "Nataliya G.", "center" : 1, "dateNumber" : 1375315200000 },
{ "_id" : { "$oid" : "5770f18dec2c5aec10d81a0e" }, "date" : "01.08.2013", "body" : "Бибирево повезло: http://ad-no.livejournal.com/81565.html&nbsp; Хочу больше подобных вещей в спальных районах Москвы.", "lat" : "55.89612", "long" : "37.612784", "name" : "politrash", "center" : 0, "dateNumber" : 1375315200000 },
{ "_id" : { "$oid" : "5770f18dec2c5aec10d81a0f" }, "date" : "01.08.2013", "body" : "?? Сонная обезьянка ?? @ Далекое Замкадье http://instagram.com/p/cgAaOhos2k/&nbsp;", "lat" : "55.99557157", "long" : "37.53481882", "name" : "Marisobelka", "center" : 0, "dateNumber" : 1375315200000 },
{ "_id" : { "$oid" : "5770f18dec2c5aec10d81a10" }, "date" : "01.08.2013", "body" : "Что-то домой в заМКАДье лениво ехать... Зависну-ка я на раёне Былой Боевой Славы... :))) http://4sq.com/18PpdRq&nbsp;", "lat" : "55.60044388", "long" : "37.61685902", "name" : "klaip", "center" : 0, "dateNumber" : 1375315200000 },
{ "_id" : { "$oid" : "5770f18dec2c5aec10d81a11" }, "date" : "01.08.2013", "body" : "Гуляшки (@ Замкадье) http://4sq.com/14lzNBq&nbsp;", "lat" : "55.57898073", "long" : "37.57805657", "name" : "Zybakova_Nataly", "center" : 0, "dateNumber" : 1375315200000 },
{ "_id" : { "$oid" : "5770f18dec2c5aec10d81a12" }, "date" : "01.08.2013", "body" : "если только на окраинах где-нибудь. Тёплый стан,  Бирюлёво,  Солнцево.... Бутово я Москвой не считаю.", "lat" : "55.595225", "long" : "37.656126", "name" : "arsenev5553", "center" : 0, "dateNumber" : 1375315200000 },
{ "_id" : { "$oid" : "5770f18dec2c5aec10d81a13" }, "date" : "01.08.2013", "body" : "если только на окраинах где-нибудь. Тёплый стан,  Бирюлёво,  Солнцево.... Бутово я Москвой не считаю.", "lat" : "55.595226", "long" : "37.656127", "name" : "arsenev5554", "center" : 0, "dateNumber" : 1375315200000 },
{ "_id" : { "$oid" : "5770f18dec2c5aec10d81a14" }, "date" : "01.08.2013", "body" : "если только на окраинах где-нибудь. Тёплый стан,  Бирюлёво,  Солнцево.... Бутово я Москвой не считаю.", "lat" : "55.595227", "long" : "37.656128", "name" : "arsenev5555", "center" : 0, "dateNumber" : 1375315200000 },
{ "_id" : { "$oid" : "5770f18dec2c5aec10d81a15" }, "date" : "01.08.2013", "body" : "если только на окраинах где-нибудь. Тёплый стан,  Бирюлёво,  Солнцево.... Бутово я Москвой не считаю.", "lat" : "55.595228", "long" : "37.656129", "name" : "arsenev5556", "center" : 0, "dateNumber" : 1375315200000 },
{ "_id" : { "$oid" : "5770f18dec2c5aec10d81a16" }, "date" : "01.08.2013", "body" : "Улица Школьная в центре Москвы! Чудесный уголок старины! #InstaSize #москва #moscow #live #like… http://instagram.com/p/cepLgZvKxY/", "lat" : "55.745769", "long" : "37.674703", "name" : "zyavaa", "center" : 0, "dateNumber" : 1375315200000 },
{ "_id" : { "$oid" : "5770f18dec2c5aec10d81a17" }, "date" : "01.08.2013", "body" : "Ваш Пентхаус в центре Москвы. Торопимся! Кто готов со мной войти в долю? @ Б.Афанасьевский 28 http://instagram.com/p/bZA_tIGe7m/", "lat" : "55.749608", "long" : "37.597135", "name" : "NonaHalperin", "center" : 1, "dateNumber" : 1375315200000 },
{ "_id" : { "$oid" : "5770f18dec2c5aec10d81a18" }, "date" : "01.08.2013", "body" : "А завтра пойду петь оду району... Никак не могу надышаться этим воздухом.. Москва,  ЦАО,  Покровка... Воздух здесь,  внутри Садового,  особый и", "lat" : "55.756679", "long" : "37.647436", "name" : "AnastasyaQ", "center" : 1, "dateNumber" : 1375315200000 },
{ "_id" : { "$oid" : "5770f18dec2c5aec10d81a19" }, "date" : "01.08.2013", "body" : "Какая же уютная Москва в центре на маленьких улочках и какая бешеная на Тверской", "lat" : "55.765131", "long" : "37.60447", "name" : "tsoymaoten", "center" : 1, "dateNumber" : 1375315200000 },
{ "_id" : { "$oid" : "5770f18dec2c5aec10d81a1a" }, "date" : "01.08.2013", "body" : "Сижу в кафе на Таганке в центре Москвы)) ну,  капец цены...", "lat" : "55.741484", "long" : "37.656755", "name" : "Annette_1504", "center" : 1, "dateNumber" : 1375315200000 },
{ "_id" : { "$oid" : "5770f18dec2c5aec10d81a1f" }, "date" : "02.08.2013", "body" : "forever_nyan @riseremi Пока можно просто совершить выход в ближнее замкадье :V", "lat" : "55.43783", "long" : "37.54633", "name" : "riseremi&nbsp;", "center" : 0, "dateNumber" : 1375401600000 },
{ "_id" : { "$oid" : "5770f18dec2c5aec10d81a2b" }, "date" : "03.08.2013", "body" : "люблино это гетто чурок,  там нет людей", "lat" : "55.674179", "long" : "37.779916", "name" : "vit bullet", "center" : 0, "dateNumber" : 1375488000000 },
{ "_id" : { "$oid" : "5770f18dec2c5aec10d81a1b" }, "date" : "01.08.2013", "body" : "Музей истории ГУЛАГа. http://www.gmig.ru/ Он расположен в самом центре Москвы на Петровке рядом со зданием Генеральной Прокуратуры. Много раз,  будучи в Москве,  проходил я в этом месте мимо странного тоннеля,  ведущего во двор и обозначенного небольшой вывеской «Музей ГУЛАГа»,  много раз ругал себя за то,  что не хватает времени зайти. И вот совершенно незапланированно посетил этот музей.", "lat" : "55.763477", "long" : "37.617555", "name" : "Александр Фауст", "center" : 1, "dateNumber" : 1375315200000 },
{ "_id" : { "$oid" : "5770f18dec2c5aec10d81a1c" }, "date" : "01.08.2013", "body" : "В центре кипящей ночной Москвы происходит очередное сумасшествие. Массовое безумие,  пожалуй,  единственное,  что может попытаться хоть как-то приглушить этот неистовый звук. Эта ночь в очередной раз покажет,  как пересечение стихий порождает чудеса. Разрушить Вавилон,  сдвинуть пирамиды,  затмить маяк под силу не многим. Восьмое чудо,  самый дорогой бриллиант,  Диана Мелисон определенно поможет в этом.", "lat" : "55.775927", "long" : "37.648885", "name" : "Диана Скубко", "center" : 1, "dateNumber" : 1375315200000 },
{ "_id" : { "$oid" : "5770f18dec2c5aec10d81a1d" }, "date" : "01.08.2013", "body" : "\"Друзья,  недалеко от центра Москвы открылся новый салон красоты \"\"Дуэт\"\"! Рукам главного мастера и владельцу салона я доверяю свои волосы уже на протяжении несколько лет! Именно поэтому хочу порекомендовать Вам этот салон,  предоставляющий услуги не только высококвалифицированных парикмахеров,  но и талантливых специалистов по маникюру и педикюру! На данный момент действуют выгодные предложения для всех желающих без исключения! Спешите! Салон красоты \"\"Дуэт\"\" располагается на ст. метро \"\"Академическая\"\",  ул. проспект 60-летия Октября,  д.15.,  тел. 8-963-787-15-11 (Маис).\"", "lat" : "55.697041", "long" : "37.578515", "name" : "Kristina Semyonova", "center" : 1, "dateNumber" : 1375315200000 },
{ "_id" : { "$oid" : "5770f18dec2c5aec10d81a1e" }, "date" : "02.08.2013", "body" : "Московский бомжатник и скопище таджиков и прочих рас. Запах шавермы встречает всех приезжих по выходу из поезда. Грабят прямо на месте,  следите за сумками и документами и не ведитесь на таксо.", "lat" : "55.77651978", "long" : "37.65565564", "name" : "Alexey S.", "center" : 1, "dateNumber" : 1375401600000 },
{ "_id" : { "$oid" : "5770f18dec2c5aec10d81a20" }, "date" : "02.08.2013", "body" : "С каких это пор,  у нас ст.м. Проспект-Вернадского,  стала станцией Черкизовская?) Когда ехала в центр Москвы,  охринела :D", "lat" : "55.82612754", "long" : "37.51772103", "name" : "NataPushkina", "center" : 1, "dateNumber" : 1375401600000 },
{ "_id" : { "$oid" : "5770f18dec2c5aec10d81a21" }, "date" : "02.08.2013", "body" : "Где-то на окраине Москвы #ололо #заВДВ @ Район «Марьино» http://instagram.com/p/chAr_5pjIF/", "lat" : "55.65107886", "long" : "37.74408817", "name" : "faithli7e", "center" : 0, "dateNumber" : 1375401600000 },
{ "_id" : { "$oid" : "5770f18dec2c5aec10d81a22" }, "date" : "02.08.2013", "body" : "Перестрелка в центре Москвы сегодня стала свидетелем как в выходящего из ресторана Гнездо Глухаря на Цветном бульв. мужчину стреляли((((", "lat" : "55.770556", "long" : "37.621667", "name" : "LilianaVCom", "center" : 1, "dateNumber" : 1375401600000 },
{ "_id" : { "$oid" : "5770f18dec2c5aec10d81a23" }, "date" : "02.08.2013", "body" : "Тихое место в центре Москвы (@ Старинный пруд в Аптекарском огороде w/ 2 others) [ pic ]: http://4sq.com/16oVAGm", "lat" : "55.77905297", "long" : "37.63570506", "name" : "Xollod", "center" : 1, "dateNumber" : 1375401600000 },
{ "_id" : { "$oid" : "5770f18dec2c5aec10d81a24" }, "date" : "02.08.2013", "body" : "\"Недавно узнала что в центре Москвы за Современником, во дворе жилого дома живут лебеди, павлины, голуби, фазаны утки всех мастей!офигееееть как же это круто!!!!организовали этот \"\"зоопарк\"\" жильцы дома напротив!Дашка спасибо за наводку!\"", "lat" : "55.76188", "long" : "37.646546", "name" : "Наташа Ивашинникова", "center" : 1, "dateNumber" : 1375401600000 },
{ "_id" : { "$oid" : "5770f18dec2c5aec10d81a25" }, "date" : "02.08.2013", "body" : "очень интересный сайт про ломбард 32, который находится в центре москвы на старом арбате 32, он один из первых коммерческих ломбардов страны!", "lat" : "55.74909", "long" : "37.589532", "name" : "Илья Гринко", "center" : 1, "dateNumber" : 1375401600000 },
{ "_id" : { "$oid" : "5770f18dec2c5aec10d81a26" }, "date" : "02.08.2013", "body" : "\"В Александровском саду полные радостные тетки в тельняшках фотографируют десантников у фонтана,  у памятника Жукову двое людей изможденного но не сломленного вида с плакатом и в белых ленточках раздают какую-то занимательную литературу под равнодушными взглядами патруля. Рядом у музея тусит дежурный чувак с лозунгом \"\"Путин враг России\"\" и номером телефона (чей это номер??). Возле метро пьяный в умат мужик неопределенной,  но ярковыраженной кавказской национальности явно уже не в первой попытке докапывается до группки десантников с флагами:- Ребят! Ну давайте я вам хоть анекдот расскажу! Те устало,  но без надрыва его увещевают:- Парень,  отвали,  не время сейчас...Семь минут до метро идти,  а столько интересного. Хорошо работать в центре Москвы.\"", "lat" : "55.752254", "long" : "37.608904", "name" : "Мария Сержантова", "center" : 1, "dateNumber" : 1375401600000 },
{ "_id" : { "$oid" : "5770f18dec2c5aec10d81a27" }, "date" : "02.08.2013", "body" : "Простите я гуляла в центре Москвы,  на охотном ряду с друганами,  но йа тут :3", "lat" : "55.757911", "long" : "37.616218", "name" : "Пет-Лэнд (Official group) ПИТОМЦЫ ™?(Лето)", "center" : 1, "dateNumber" : 1375401600000 },
{ "_id" : { "$oid" : "5770f18dec2c5aec10d81a28" }, "date" : "02.08.2013", "body" : "Москва Сити .. Так красиво и страшно проходить мимо pic.twitter.com/ri4kY5n0re", "lat" : "55.746667", "long" : "37.536944", "name" : "Vasilyva_knara", "center" : 1, "dateNumber" : 1375401600000 },
{ "_id" : { "$oid" : "5770f18dec2c5aec10d81a29" }, "date" : "03.08.2013", "body" : "Ох уж эти корпоративы!) $€ with my bro @bouss88 где-то далеко от Москвы.. @ Военный городок", "lat" : "55.62959028", "long" : "36.33926871", "name" : "Ayk_Si", "center" : 0, "dateNumber" : 1375488000000 },
{ "_id" : { "$oid" : "5770f18dec2c5aec10d81a2a" }, "date" : "03.08.2013", "body" : "Храм строится в районе Некрасовка на улице 1-я Вольская,  владение 2,  в рамках программы возведения 200 храмов в спальных районах Москвы", "lat" : "55.683336", "long" : "37.920341", "name" : "anbarveprev153", "center" : 0, "dateNumber" : 1375488000000 },
{ "_id" : { "$oid" : "5770f18dec2c5aec10d81a2c" }, "date" : "03.08.2013", "body" : "Они совершили преступление,  которое карается законами РФ. http://sadalskij.livejournal.com/1352966.html&nbsp; Это произошло в центре Москвы у Нового Арбата.", "lat" : "55.752646", "long" : "37.582594", "name" : "mgubenkov", "center" : 1, "dateNumber" : 1375488000000 },
{ "_id" : { "$oid" : "5770f18dec2c5aec10d81a2d" }, "date" : "03.08.2013", "body" : "\"В центре Москвы,  в баре \"\"Камчатка\"\",  на меня и моих друзей накинулась компания с криками: \"\"Пидоры! Горите в аду!\"\"\"", "lat" : "55.76175", "long" : "37.619279", "name" : "kichanova", "center" : 1, "dateNumber" : 1375488000000 },
{ "_id" : { "$oid" : "5770f18dec2c5aec10d81a2e" }, "date" : "03.08.2013", "body" : "#москва #отжиг #путин #гибдд я управлял движением в центре Москвы... @ Ботанический сад МГУ http://instagram.com/p/ci65_HSz8H/", "lat" : "55.777551", "long" : "37.635123", "name" : "_sad_monkey_", "center" : 1, "dateNumber" : 1375488000000 },
{ "_id" : { "$oid" : "5770f18dec2c5aec10d81a2f" }, "date" : "03.08.2013", "body" : "Кра?сная пло?щадь — главная площадь Москвы,  расположенная в центре радиально-кольцевой планировки города .. http://vk.cc/1I1SBm", "lat" : "55.753775", "long" : "37.621284", "name" : "KorshakovAleks", "center" : 1, "dateNumber" : 1375488000000 },
{ "_id" : { "$oid" : "5770f18dec2c5aec10d81a30" }, "date" : "03.08.2013", "body" : "AlexeyKrasny Да ладно Щелково. В Москве практически в Центре, на Октябрьском поле стоит Т-34-85 весь в @@@@@", "lat" : "55.793706", "long" : "37.493842", "name" : "alukashevsky", "center" : 1, "dateNumber" : 1375488000000 },
{ "_id" : { "$oid" : "5770f18dec2c5aec10d81a31" }, "date" : "03.08.2013", "body" : "\"В центре Москвы (мы были на \"\"Менделеевской\"\") оч. мало людей в выходные. ??В кафе вообще почти никого не было)??\"", "lat" : "55.781328", "long" : "37.598941", "name" : "volgin7", "center" : 1, "dateNumber" : 1375488000000 },
{ "_id" : { "$oid" : "5770f18dec2c5aec10d81a32" }, "date" : "03.08.2013", "body" : "\"Вчера в центре Москвы в районе Павелецкого вокзала средь бела дня видел молодого мужчину в майке,  на которой спереди был изображён большой радужный флаг. Так настроение поднялось сразу ) Я прошёл мимо,  торопился по делам,  и уже через пару минут жалел,  что не остановился,  не попытался узнать,  кто он. Вообще,  это невероятно круто. Не прятаться,  не дрожать \"\"только б не догадались\"\",  а открыто идти по улице среди толпы с гордым символом равенства и человеческого достоинства – Радужным Флагом – на груди. Эх,  надо было подойти пожать ему руку.\"", "lat" : "55.731387", "long" : "37.636163", "name" : "Иван Симочкин", "center" : 1, "dateNumber" : 1375488000000 },
{ "_id" : { "$oid" : "5770f18dec2c5aec10d81a33" }, "date" : "03.08.2013", "body" : "Я в Печатниках.Здесь также круто,  как и во всех окраинных районах. Всем Печатники,  Ясенево,  Новокосино,  Войковскую и иже с ними!Доброго дня.", "lat" : "55.680392", "long" : "37.709641", "name" : "v_mironenko", "center" : 0, "dateNumber" : 1375488000000 },
{ "_id" : { "$oid" : "5770f18dec2c5aec10d81a34" }, "date" : "03.08.2013", "body" : "Я в Печатниках.Здесь также круто,  как и во всех окраинных районах. Всем Печатники,  Ясенево,  Новокосино,  Войковскую и иже с ними!Доброго дня.", "lat" : "55.615232", "long" : "37.53985", "name" : "v_mironenko", "center" : 0, "dateNumber" : 1375488000000 },
{ "_id" : { "$oid" : "5770f18dec2c5aec10d81a35" }, "date" : "04.08.2013", "body" : "\"Вчера в Москве в баре \"\"Камчатка\"\" избили Веру Кичанову (журналист,  муниципальный депутат) и её друзей,  она замужем напомню. Слава Богу вроде бы обошлось травмпунктом. Суки! Вот что я по этому поводу думаю. \"\"В центре Москвы,  в баре \"\"Камчатка\"\",  на меня и моих друзей накинулась компания с криками: \"\"Пидоры! Горите в аду!\"\" Проснулась,  пришла в себя,  отвечаю всем. С нами все в порядке,  но есть что зафиксировать в травмпункте,  и заявление в полицию будет.Честно,  20 минут стояла на углу Кузнецкого и хотела вызвать полицию,  а друзья отговаривали меня и в итоге отговорили. Может,  они были правы. Охране клуба мы явно нравились меньше – они могли бы,  злясь,  что мы им испортили вечер,  вызвав полицию,  дать показания не в нашу пользу.Когда они нас не выпускали \"\"для нашей безопасности\"\",  я спрашивала: \"\"Почему вы не вызываете полицию?\"\". Отвечали: вам надо,  вы и вызывайте.Те,  кому досталось больше всех,  вообще не хотели оглашать историю,  я написала закрытый пост для друзей – друзья убедили все же рассказать.\"\" А вы говорите \"\"кавказцы\"\".\"", "lat" : "55.76175", "long" : "37.619279", "name" : "Александр Николаев", "center" : 1, "dateNumber" : 1375574400000 },
{ "_id" : { "$oid" : "5770f18dec2c5aec10d81a36" }, "date" : "04.08.2013", "body" : "Юго-запад... считается хороший Р-н - Университет,  Новые Черемушки... хотя если совсем уже какое-нибудь Бутово - это жопа", "lat" : "55.670077", "long" : "37.554493", "name" : "SamtenGyaltsen", "center" : 0, "dateNumber" : 1375574400000 },
{ "_id" : { "$oid" : "5770f18dec2c5aec10d81a37" }, "date" : "05.08.2013", "body" : "Будьте осторожны!зафиксирован еще один случай нападения на посетителей. Охрана реагирует никак!!!!! Причнм одни и те же лица нападавших!!!!нужно менять штат охранников. Либо бар переносить из центра", "lat" : "55.76162439", "long" : "37.61967875", "name" : "Kirill K.&nbsp;", "center" : 1, "dateNumber" : 1375660800000 },
{ "_id" : { "$oid" : "5770f18dec2c5aec10d81a38" }, "date" : "05.08.2013", "body" : "Внезапно,  на Таганской улице,  практически в самом центре Москвы,  обнаружилась саентологическая церковь.", "lat" : "55.740062", "long" : "37.663143", "name" : "ka_an_ni", "center" : 1, "dateNumber" : 1375660800000 },
{ "_id" : { "$oid" : "5770f18dec2c5aec10d81a39" }, "date" : "05.08.2013", "body" : "Я пару раз была в Москве и посетила наконец Victoria Hostel,  который находится в центре Москвы.Комфорт мне был обеспечен за минимальную цену. Мне все очень понравилось,  рекомендую гостям столицы.", "lat" : "55.717385", "long" : "37.632878", "name" : "Кристина Уфаева", "center" : 1, "dateNumber" : 1375660800000 },
{ "_id" : { "$oid" : "5770f18dec2c5aec10d81a3a" }, "date" : "05.08.2013", "body" : "Останавливались в Москве в недорогой мини гостинице Victoria Hostel. Вполне комфортное место для проживания в центре Москвы.", "lat" : "55.717385", "long" : "37.632878", "name" : "Olga Moroznaja", "center" : 1, "dateNumber" : 1375660800000 },
{ "_id" : { "$oid" : "5770f18dec2c5aec10d81a3b" }, "date" : "05.08.2013", "body" : "Открытие первого в России монобутика TISSOT в центре Москвы в ГУМе,  на Красной Площади", "lat" : "55.75469", "long" : "37.621564", "name" : "Ксения Завьялова", "center" : 1, "dateNumber" : 1375660800000 },
{ "_id" : { "$oid" : "5770f18dec2c5aec10d81a3c" }, "date" : "05.08.2013", "body" : "Вчера муж выводил меня в люди,  то есть,  в ресторан Карлсон,  который расположен на 14-м этаже в центре Москвы. Это открытая площадка на крыше,  со вкусной едой,  превосходными десертами и красивыми видами на центр Москвы. Мне понравилось!", "lat" : "55.744014", "long" : "37.635259", "name" : "Оксана Марковчина", "center" : 1, "dateNumber" : 1375660800000 },
{ "_id" : { "$oid" : "5770f18dec2c5aec10d81a3d" }, "date" : "06.08.2013", "body" : "Слава Богу,  что в центре Москвы еще остались такие чудные места. (Парк близ театра Н.И. Сац - м. Университет)", "lat" : "55.700711", "long" : "37.545676", "name" : "Каллиграф Души", "center" : 1, "dateNumber" : 1375747200000 },
{ "_id" : { "$oid" : "5770f18dec2c5aec10d81a3e" }, "date" : "06.08.2013", "body" : "\"НИМАНИЕ !!! ДРУЗЬЯ!!! В СВЯЗИ НОВЫМ ЗАПУСКОМ В СЕНТЯБРЕ ПРОЕКТА \"\"ГОЛОС\"\" НА ПЕРВОМ КАНАЛЕ У НАС ЛЕТНЯЯ АКЦИЯ В СТУДИИ ЗВУКОЗАПИСИ В ЦЕНТРЕ МОСКВЫ !!! СТУДИЯ ЗВУКОЗАПИСИ SHOWCOCKTAIL RECORDS ПРЕДЛАГАЕТ ЗАПИСЬ ОДНОЙ ПЕСНИ С ОБРАБОТКОЙ,  СВЕДЕНИЕМ И МАСТЕРИНГОМ ВСЕГО ЗА 1000 РУБЛЕЙ. 5-Я ПЕСНЯ ЗА ОДИН ДЕНЬ - В ПОДАРОК! МИНУСОВКИ ВАМ ЖЕЛАТЕЛЬНО ПРИНОСИТЬ С СОБОЙ (можем и помочь с их поиском или изготовим сами). АКЦИЯ ДЕЙСТВУЕТ ДО 25 августа 2013. Запись производим в микрофон NEUMANN M 147 Tube!!! СТУДИЯ ТАКЖЕ ДЕЛАЕТ НА ЗАКАЗ ПЕСНИ \"\"ПОД КЛЮЧ\"\" И АВТОРСКИЕ АРАНЖИРОВКИ,  СВЕДЕНИЕ И МАСТЕРИНГ ВАШИХ ТРЕКОВ. Тел.: 8-963-695-77-00 или 8-963-667-92-82 М. Бауманская,  Спартаковский пер. 26,  стр. 2,  подъезд 3,  домофон 005 (4 - 5 минут от метро) Давайте все перепост, сделаем наш мир ещё музыкальнее!)\"", "lat" : "55.775469", "long" : "37.680235", "name" : "Вадим Субботин", "center" : 1, "dateNumber" : 1375747200000 },
{ "_id" : { "$oid" : "5770f18dec2c5aec10d81a3f" }, "date" : "06.08.2013", "body" : "Обед на природе в центре москвы. улица Воздвиженка,  Москва", "lat" : "55.7529", "long" : "37.602133", "name" : "Дмитрий Романчук", "center" : 1, "dateNumber" : 1375747200000 },
{ "_id" : { "$oid" : "5770f18dec2c5aec10d81a40" }, "date" : "06.08.2013", "body" : "С удовольствием!“@snezhnitskiy: Маша, спасибо.Приглашаю Вас в наш дом малютки, в #Москва, в центре, в #басманном районе.Подарки для деток с меня", "lat" : "55.768719", "long" : "37.675573", "name" : "EsperanzaWaxman", "center" : 1, "dateNumber" : 1375747200000 },
{ "_id" : { "$oid" : "5770f18dec2c5aec10d81a41" }, "date" : "06.08.2013", "body" : "\"Аve!!!! \"\"@MskDGKH: Рекламную конструкцию компании \"\"СОГАЗ\"\" убрали с крыши исторического здания на Пушкинской площади в центре Москвы\"\"\"", "lat" : "55.765119", "long" : "37.604803", "name" : "ya_posha", "center" : 1, "dateNumber" : 1375747200000 },
{ "_id" : { "$oid" : "5770f18dec2c5aec10d81a42" }, "date" : "07.08.2013", "body" : "жуткая некультурная дрянь. Впрочем,  курица не птица,  Митино - не Москва. Откуда девочке с окраин быть культурной?", "lat" : "55.844829", "long" : "37.364032", "name" : "arsenev5553", "center" : 0, "dateNumber" : 1375833600000 },
{ "_id" : { "$oid" : "5770f18dec2c5aec10d81a43" }, "date" : "07.08.2013", "body" : "Большая Новодмитровская 36/4. Тел:8 (903) 003-02-40 Работает:17:00-22:00 Первый профессиональный Настольный Футбол в центре Москвы", "lat" : "55.804332", "long" : "37.585123", "name" : "Rokityan", "center" : 1, "dateNumber" : 1375833600000 },
{ "_id" : { "$oid" : "5770f18dec2c5aec10d81a44" }, "date" : "07.08.2013", "body" : "Не очень оптимистичное название улицы в центре Москвы) выходит на Сретенку,  кстати)", "lat" : "55.769896", "long" : "37.63211", "name" : "oksana_cheb", "center" : 1, "dateNumber" : 1375833600000 },
{ "_id" : { "$oid" : "5770f18dec2c5aec10d81a45" }, "date" : "07.08.2013", "body" : "Танцпол в центре Москвы) @ Танцевальная Набережная Нескучного Сада", "lat" : "55.72364844", "long" : "37.59253973", "name" : "Nastya_Tkach", "center" : 1, "dateNumber" : 1375833600000 },
{ "_id" : { "$oid" : "5770f18dec2c5aec10d81a47" }, "date" : "07.08.2013", "body" : "купить квартиру в центре Москвы на Арбате", "lat" : "55.750956", "long" : "37.589972", "name" : "Илья Пиканин", "center" : 1, "dateNumber" : 1375833600000 },
{ "_id" : { "$oid" : "5770f18dec2c5aec10d81a46" }, "date" : "07.08.2013", "body" : "И это в самом центре Москвы!:) проспект Мира,  Москва", "lat" : "55.778576", "long" : "37.634389", "name" : "Ольга Фирсова", "center" : 1, "dateNumber" : 1375833600000 },
{ "_id" : { "$oid" : "5770f18dec2c5aec10d81a48" }, "date" : "08.08.2013", "body" : "Новая Москва превращается в спальный район столицы", "lat" : "55.561263", "long" : "37.340355", "name" : "DiegoMagnus3", "center" : 0, "dateNumber" : 1375920000000 },
{ "_id" : { "$oid" : "5770f18dec2c5aec10d81a49" }, "date" : "08.08.2013", "body" : "Мы едем! Ну не могла не зачекиниться в заМКАДье)) (@ Dolgopville) http://4sq.com/15PZyH8&nbsp;", "lat" : "55.937288", "long" : "37.493821", "name" : "domee_argentino", "center" : 0, "dateNumber" : 1375920000000 },
{ "_id" : { "$oid" : "5770f18dec2c5aec10d81a4a" }, "date" : "08.08.2013", "body" : "Своя атмосфера практически в центре Москвы. Еще и застала в такой неловкий момент. @ Лубянская площадь http://instagram.com/p/cw3WRCx4Ro/", "lat" : "55.75932267", "long" : "37.62743366", "name" : "ThusSpeaksSabi", "center" : 1, "dateNumber" : 1375920000000 },
{ "_id" : { "$oid" : "5770f18dec2c5aec10d81a4b" }, "date" : "08.08.2013", "body" : "\"В центре Москвы загорелось здание \"\"Детского мира\"\" Неужели кто-то нацелился отжать,  жалко, если такой магазин исчезнет.\"", "lat" : "55.752181", "long" : "37.59472", "name" : "nataliyaburkova", "center" : 1, "dateNumber" : 1375920000000 },
{ "_id" : { "$oid" : "5770f18dec2c5aec10d81a4c" }, "date" : "08.08.2013", "body" : "| Беда | При установке рекламного щита рабочие пробили крышу дома в Оружейном переулке в центре Москвы: Рабочи... http://bit.ly/15P2kiw", "lat" : "55.771579", "long" : "37.599141", "name" : "warlock_serzh", "center" : 1, "dateNumber" : 1375920000000 },
{ "_id" : { "$oid" : "5770f18dec2c5aec10d81a4d" }, "date" : "09.08.2013", "body" : "Если вы решили провести вечер пятницы в культурной обстановке в центре Москвы,  то приглашаем на Кузнецкий мост http://kultura.mos.ru/press/news/1422965.html", "lat" : "55.761732", "long" : "37.620014", "name" : "Юлия Чугуева", "center" : 1, "dateNumber" : 1376006400000 },
{ "_id" : { "$oid" : "5770f18dec2c5aec10d81a4e" }, "date" : "09.08.2013", "body" : "\"Опять СМИ расскачивают чушь про дагестанцев. На этот раз \"\"дагестанцы\"\" захватили кафе \"\"Хачапури\"\" в центре Москвы http://news.yandex.ru/yandsearch?cl4url=www.kommersant.ru%2Fdoc%2F2250953&amp;lr=28&amp;rpt=story&nbsp;…\"", "lat" : "55.763035", "long" : "37.605764", "name" : "iGNabi", "center" : 1, "dateNumber" : 1376006400000 },
{ "_id" : { "$oid" : "5770f18dec2c5aec10d81a4f" }, "date" : "10.08.2013", "body" : "Москвичи,  подскажите пожалуйста,  как далеко Марьино находится от мэрии Москвы.. Приблизительно..", "lat" : "55.654269", "long" : "37.742133", "name" : "SFGO76", "center" : 0, "dateNumber" : 1376092800000 },
{ "_id" : { "$oid" : "5770f18dec2c5aec10d81a50" }, "date" : "10.08.2013", "body" : "\"Моё \"\"в деревню,  в глушь,  в Саратов\"\" теперь гордо зовётся новой Москвой. Но здесь по-прежнему хорошо и покойно. Стабильность.:)\"", "lat" : "55.561263", "long" : "37.340355", "name" : "planemo__&nbsp;", "center" : 0, "dateNumber" : 1376092800000 },
{ "_id" : { "$oid" : "5770f18dec2c5aec10d81a51" }, "date" : "10.08.2013", "body" : "Today's photosession ???? ?? @ Далекое Замкадье http://instagram.com/p/c12DDog0l4/&nbsp;", "lat" : "55.99557157", "long" : "37.53481882", "name" : "KorolevaRocks", "center" : 0, "dateNumber" : 1376092800000 },
{ "_id" : { "$oid" : "5770f18dec2c5aec10d81a52" }, "date" : "10.08.2013", "body" : "\"\"\"@EchoMskNews: Выстрелы прогремели вчера вечером в центре Москвы у метро «Фрунзенская» http://tinyurl.com/kpewn7f&nbsp;\"\"- \"\"Аврора?!\"\" Как уже?!?!\"", "lat" : "55.727448", "long" : "37.580659", "name" : "August2279", "center" : 1, "dateNumber" : 1376092800000 },
{ "_id" : { "$oid" : "5770f18dec2c5aec10d81a53" }, "date" : "10.08.2013", "body" : "Живу теперь в центре Москвы,  недалеко от дочки Собянина (@ Проточный пер. 11) http://4sq.com/1eAouV5", "lat" : "55.74960748", "long" : "37.57873581", "name" : "voitsekh", "center" : 1, "dateNumber" : 1376092800000 },
{ "_id" : { "$oid" : "5770f18dec2c5aec10d81a54" }, "date" : "10.08.2013", "body" : "Джигурда собрал флешмоб Harlem Shake на Арбате.Пришли толпы подростков в костюмах и масках.Участники флешмоба признавались,  что для них было неожиданностью такая акция.Никита Джигурда уже не впервые танцует в центре Москвы !!!", "lat" : "55.749402", "long" : "37.591229", "name" : "Дмитрий Крутиков", "center" : 1, "dateNumber" : 1376092800000 },
{ "_id" : { "$oid" : "5770f18dec2c5aec10d81a55" }, "date" : "11.08.2013", "body" : "cekc_mypucm Замкадье типичное pic.twitter.com/uiyt0xSrVE", "lat" : "56.010352", "long" : "37.847101", "name" : "arsenev5553", "center" : 0, "dateNumber" : 1376179200000 },
{ "_id" : { "$oid" : "5770f18dec2c5aec10d81a56" }, "date" : "11.08.2013", "body" : "\"А кто хочет прямо сейчас сыграть с нами в Мафию в центре Москвы? Мы в \"\"Тике-баре\"\" на м. Баррикадная,  рядом с входом в детский зоопарк.\"", "lat" : "55.760081", "long" : "37.58448", "name" : "sholademi_s", "center" : 1, "dateNumber" : 1376179200000 },
{ "_id" : { "$oid" : "5770f18dec2c5aec10d81a57" }, "date" : "11.08.2013", "body" : "Сегодня по инициативе @ASMishakov строим площадку #ребятаснашегодвора на территории Управы Красносельская. Воркаут пришел в центр Москвы", "lat" : "55.779249", "long" : "37.668395", "name" : "rodnyansky", "center" : 1, "dateNumber" : 1376179200000 },
{ "_id" : { "$oid" : "5770f18dec2c5aec10d81a58" }, "date" : "11.08.2013", "body" : "Чайхана в центре Москвы))) #az #aztagram #moscow http://instagram.com/p/c3ukGzA-qo/", "lat" : "55.778787", "long" : "37.665311", "name" : "4ikarayz", "center" : 1, "dateNumber" : 1376179200000 },
{ "_id" : { "$oid" : "5770f18dec2c5aec10d81a59" }, "date" : "11.08.2013", "body" : "@silupin москва центр арбатская...", "lat" : "55.751717", "long" : "37.601691", "name" : "e_styd", "center" : 1, "dateNumber" : 1376179200000 },
{ "_id" : { "$oid" : "5770f18dec2c5aec10d81a5a" }, "date" : "11.08.2013", "body" : "Центр Москвы.Арбат.Жара страшная, дышать нечем, кругом полно людей.А я счастлив", "lat" : "55.749402", "long" : "37.591229", "name" : "MishaMalvin", "center" : 1, "dateNumber" : 1376179200000 },
{ "_id" : { "$oid" : "5770f18dec2c5aec10d81a5b" }, "date" : "11.08.2013", "body" : "Сказали быть ВОРКАУТУ в центре Москвы? Сделали! #ребятаснашегодвора @ 1-й Красносельский переулок,  5 http://instagram.com/p/c4F_NuwqUr/", "lat" : "55.783566", "long" : "37.670295", "name" : "rodnyansky", "center" : 1, "dateNumber" : 1376179200000 },
{ "_id" : { "$oid" : "5770f18dec2c5aec10d81a5c" }, "date" : "11.08.2013", "body" : "Никольская - Новая пешеходная улица в центре Москвы. @ Никольская улица http://instagram.com/p/c2PsESIjXI/", "lat" : "55.75696", "long" : "37.622189", "name" : "Ngiht Wolf", "center" : 1, "dateNumber" : 1376179200000 },
{ "_id" : { "$oid" : "5770f18dec2c5aec10d81a5d" }, "date" : "12.08.2013", "body" : "Друзья,  это не аэропорт,  это посёлок!", "lat" : "55.61053584", "long" : "37.29077873", "name" : "Vnukovo A.", "center" : 0, "dateNumber" : 1376265600000 },
{ "_id" : { "$oid" : "5770f18dec2c5aec10d81a5e" }, "date" : "12.08.2013", "body" : "Немножко Ясенево,  замкадье.) http://instagram.com/p/c7TJUBDJkT/&nbsp;", "lat" : "55.606087", "long" : "37.53341", "name" : "Maks_Clyde", "center" : 0, "dateNumber" : 1376265600000 },
{ "_id" : { "$oid" : "5770f18dec2c5aec10d81a5f" }, "date" : "12.08.2013", "body" : "Райский уголок в центре Москвы???? @ Ботанический Сад МГУ http://instagram.com/p/c6LlTVCpDz/", "lat" : "55.70531832", "long" : "37.52571929", "name" : "AlexandraKusaka", "center" : 1, "dateNumber" : 1376265600000 },
{ "_id" : { "$oid" : "5770f18dec2c5aec10d81a60" }, "date" : "12.08.2013", "body" : "Кто бы мог подумать,  что в центре Москвы будет так уютно!) @ Собачий пруд http://instagram.com/p/c6SNBOinyI/", "lat" : "55.797161", "long" : "37.681206", "name" : "lusy001", "center" : 1, "dateNumber" : 1376265600000 },
{ "_id" : { "$oid" : "5770f18dec2c5aec10d81a61" }, "date" : "12.08.2013", "body" : "I'm at Бизнес Центр Арбат (город Москва,  Москва) http://4sq.com/1cZz8Xn", "lat" : "55.72449818", "long" : "37.5735894", "name" : "GenaSamogin", "center" : 1, "dateNumber" : 1376265600000 },
{ "_id" : { "$oid" : "5770f18dec2c5aec10d81a62" }, "date" : "12.08.2013", "body" : "По рублю в кармане,  а мы в центре Москвы.  Местоположение Большой театр", "lat" : "55.760098", "long" : "37.618609", "name" : "Даулет Шалбуйдаков", "center" : 1, "dateNumber" : 1376265600000 },
{ "_id" : { "$oid" : "5770f18dec2c5aec10d81a63" }, "date" : "12.08.2013", "body" : "Москва,  центр города,  Кремль - (©)AIRPANO.RU - проект Олега Гапонюка", "lat" : "55.752115", "long" : "37.61791", "name" : "Гульсина Шильникова-Ялалова", "center" : 1, "dateNumber" : 1376265600000 },
{ "_id" : { "$oid" : "5770f18dec2c5aec10d81a64" }, "date" : "12.08.2013", "body" : "У нас в компании открыта вакансия -специалист отдела продаж. Работа в офисе,  торговля промышленной упаковкой. Зп от 35тыс. Центр москвы (м. Баррикадная). Очень нужен человек,  чем быстрее тем лучше. Если что пишите в личку lisenkov_a@mail.ru", "lat" : "55.760688", "long" : "37.581199", "name" : "Александр Лисенков", "center" : 1, "dateNumber" : 1376265600000 },
{ "_id" : { "$oid" : "5770f18dec2c5aec10d81a65" }, "date" : "12.08.2013", "body" : "Ребята,  добрый день! хотела предложить новость,  а точнее поднять общественный резонанс: дело в том,  что вчера ночью у моего очень хорошего друга 2-е лиц не русской национальности избили сестру и отобрали телефон.. чтобы было более понятнее,  то напали ночью в центре Москвы (ул. Плющиха) в 500 м стояла уазик с милицией и те даже внимание не обратили на то, ч то девушку избивают.. девушка сейчас дома,  ей наложили швы на лицо (на щеку),  дело стопорится в милиции,  уголовное дело не заводят..из-за того,  что главный из того уазика (который дело принял) не вышел сегодня на работу,  т.к. в ночь дежурил.. вообщем бардак полный. в первый раз с таким столкнулась. Давайте поможем приобрести этому делу известность,  может тогда зашевелятся те,  кто должен по праву заниматься расследованием???", "lat" : "55.740258", "long" : "37.576664", "name" : "Анна Черноуцян", "center" : 1, "dateNumber" : 1376265600000 },
{ "_id" : { "$oid" : "5770f18dec2c5aec10d81a66" }, "date" : "12.08.2013", "body" : "люблю его! лучшая открытая веранда в МСК недалеко от центра. Там очень уютно??..романтично!!??..вид на кремль..меню оставляет желать лучшего,  но если вы чаявничать,  как я,  или на апперетив - самое то!", "lat" : "55.7440454", "long" : "37.63502728", "name" : "Lisena L.", "center" : 1, "dateNumber" : 1376265600000 },
{ "_id" : { "$oid" : "5770f18dec2c5aec10d81a67" }, "date" : "13.08.2013", "body" : "И кто сказал,  что одной гулять скучно? С 12 до 6 я побывала не только в центре,  но и на окраине Москвы. ВДНХ - Ботанический Сад - Мясницкая.", "lat" : "55.821043", "long" : "37.641538", "name" : "blondinsoul", "center" : 0, "dateNumber" : 1376352000000 },
{ "_id" : { "$oid" : "5770f18dec2c5aec10d81a68" }, "date" : "13.08.2013", "body" : "И кто сказал,  что одной гулять скучно? С 12 до 6 я побывала не только в центре,  но и на окраине Москвы. ВДНХ - Ботанический Сад - Мясницкая.", "lat" : "55.84529", "long" : "37.638665", "name" : "blondinsoul", "center" : 0, "dateNumber" : 1376352000000 },
{ "_id" : { "$oid" : "5770f18dec2c5aec10d81a69" }, "date" : "13.08.2013", "body" : "И кто сказал,  что одной гулять скучно? С 12 до 6 я побывала не только в центре,  но и на окраине Москвы. ВДНХ - Ботанический Сад - Мясницкая.", "lat" : "55.762487", "long" : "37.634629", "name" : "blondinsoul", "center" : 1, "dateNumber" : 1376352000000 },
{ "_id" : { "$oid" : "5770f18dec2c5aec10d81a6a" }, "date" : "14.08.2013", "body" : "\"Сделать \"\"Дубровского\"\" на современный лад затеяли еще в 2008 году. Правда,  сценарий несколько раз переписывался,  а режиссер на полпути поменялся: начавший съемки Кирилл Михановский уехал на Кубу делать другой фильм,  поэтому проект достался драматургу и режиссеру Александру Вартанову. О том,  каково было влезать в чужую шкуру,  превращать пушкинского персонажа в местного Шерлока и радикально менять концовку,  не трогая ни строчки в сценарии,  Вартанов рассказал РИА Новости в один из последних съемочных дней.- Как это вообще – снимать фильм,  который начал другой человек? - Я сам с трудом это себе представлял,  потому и согласился. Это интересно. Уметь сделать что-то такое странное,  а не только снять глубоко личное кино за три копейки – это часть профессии,  часть тех навыков,  которые у тебя должны быть. Но получился какой-то адский эксперимент: вначале никто вообще не понимал,  как подхватить чужое и сделать из него свое.- Кирилл Михановский много успел сделать?- Он сделал все самое главное. Во-первых,  перелопатил сценарий под себя. Во-вторых,  набрал всех актеров,  а правильный кастинг – это 90% успеха. Они уже начали работать с ним и практически придумали свои образы,  мы только с Юрием Цурило что-то поменяли. Мне оставалось только наблюдать и правильно понимать,  где должна находиться камера. Плюс он снял практически полностью первую серию из 4 или 5 возможных.- Вы как-то обсуждали с ним продолжение съемок?- Я ему писал,  задавал какие-то вопросы,  главным образом чисто этического свойства,  потому что я сразу сказал,  что подхвачу проект только в том случае,  если предыдущий режиссер сам отказался. Но Кирилл долго не списывался не только со мной,  но и с исполнителями главных ролей,  с которыми они дружили довольно-таки взасос. В какой-то момент,  с 18-й попытки ответил либо Клаве Коршуновой,  либо Даниле Козловскому. В том смысле,  что давайте как-нибудь сами.- И вот вы стали переписывать сценарий заново?- Я из принципа его не трогал. Потому что,  во-первых,  я хотел,  чтобы что-то осталось от Кирилла. Во-вторых,  если бы я начал,  я вообще не оставил бы камня на камне от того,  что там было. А лишнее,  ненужное мучение этого несчастного сценария,  который сначала писал журналист Константин Чернозатонский,  потом переписывал Михаил Брашинский,  а потом еще Кирилл,  не было нужно ни мне,  ни продюсерам. С оператором Севой Каптуром мы отсмотрели по 80 раз весь отснятый Кириллом материал и составили список,  чего делать нельзя,  потому что Кирилл таких выразительных средств не заявлял. Например,  мы не можем снимать планы определенной крупности. Мы думали,  что должны полностью сохранить ту стилистику,  которую он задавал. Потом все-таки выяснилось,  что это невозможно,  и через неделю съемок мы стали уже свое кино делать. Но думаю,  что переход от Михановского к нам произойдет довольно гладко,  потому что он снял все,  что происходило с Дубровским в Москве до того момента,  как он приехал к себе на родину,  где не был лет 15,  а мы подхватились уже в глуши. Там история может меняться и визуально,  и ритмически.- Где была ваша глушь?- У нас с Кириллом она была разная: у него – где-то в Тверской губернии,  у нас – под Клином. Из 28 дней 20 мы работали по пояс в снегу,  реально глушь была страшная,  никто нас там не трогал. Продюсер приехал один раз,  на полтора часа,  просто посмотреть. Сказал \"\"материал беспрецедентный\"\". Мы потом долго пытались понять,  что это значит,  и в итоге решили,  что просто не пройдем ОТК. Когда кино сдается на канал,  его проверяют с каких-то технических позиций: правильный ли у нас черный цвет,  правильный ли белый. А мы довольно много экспериментировали там с изображением – по крайней мере,  для сериала на НТВ,  старались сделать все,  чтобы вышло непохоже на стандартную телевизионную картинку. С нашей стороны это была попытка сделать хороший сериал,  похожий на то,  что нам самим нравится – на \"\"Шерлока\"\",  на Breaking Bad,  на \"\"Клан Сопрано\"\". Материал вроде получился хороший,  актеры фантастически совершенно играют. Но кино,  конечно,  делается на монтаже.- Там ведь еще полнометражная версия должна быть?- Должна. Но сценарий писался все-таки для сериала. Сериал из этого может получиться очень качественный,  если мы все будем очень стараться на пост-продакшне. А в кино синтаксис совершенно другой,  это другой вид искусства. Но мы сделаем все,  что от нас зависит.- Вы Пушкина перечитывали,  когда готовились к съемкам?- Оператор все время тряс томиком Пушкина и говорил,  что там все гораздо интереснее и есть ответы на любые вопросы,  которые у нас внутри творческой группы возникали к сценарию. А я специально не перечитывал – чтобы не потерять ощущение современности. В сценарии на самом деле были предусмотрены визуальные смычки с пушкинской эпохой: там барышня играет на клавикордах,  все красиво катаются на лошадях. Мы старались это по максимуму убрать: барышня осталась,  но ни одной лошади больше нет.На самом деле,  все основные элементы пушкинской истории остались. Просто сейчас там есть и приморские партизаны,  и Кущевка,  и смычка властей на местах с мафией,  хотя в первую очередь это история про человеческие вещи,  про любовь и про семью.История про то,  как успешный молодой человек,  добившийся формально всего,  чего можно добиться к 25-26 годам,  обладающий властью,  богатством,  блестящим умом,  костюмами многотысячедолларовыми,  в связи с какими-то семейными неурядицами возвращается в настоящую Россию – и оказывается,  что ничего из тех правил,  которые он себе придумал,  там не работает.И Дубровский,  и Маша очень европеизированные,  уверенные,  что мир – нечто рациональное и прекрасное,  где действуют четкие законы,  а деньги имеют четкое значение. Машу мы вообще видим в тот момент,  когда она только что вернулась после нескольких лет обучения где-то в Европе,  чтобы в загородном доме у отца немного пересидеть и подумать. И вот они оба оказываются в настоящей России,  в среде абсолютно нерациональной и неблагородной,  похожей на американский ужастик,  где любой человек с автозаправки может оказаться маньяком,  делающим у себя в подвале чучела из человеческих детенышей.Все их представления совершенно рушатся,  когда они сталкиваются с реальностью. Для меня это – трагедия Гамлета,  кризис ренессансного мировосприятия. Чудовищная история про то,  как реальная жизнь раздавила катком двух прекрасных,  интеллигентных,  образованных,  тонких,  ироничных,  гладко выбритых,  красиво одетых молодых людей. Немножко \"\"Счастье мое\"\" :  человек погружается в глубинку,  и она его пожирает.Тут наша главная разница с Кириллом: он хотел делать очень жизнеутверждающую историю,  оставлять много надежды,  света и тепла в конце. А не получается история. Там просто все умирают в конце – либо духовно,  либо физически.Хотя на самом деле это просто сериал,  господи-боже-мой,  ничего сверхъестественного.- Вам уже предложили следующий коммерческий проект? Что вообще дальше будет?- Я очень рассчитываю,  что в августе я все-таки сниму свое кино,  которое будет еще более независимым,  экспериментальным и дешевым,  чем \"\"Собиратель пуль\"\". Не знаю еще,  откуда мы возьмем деньги – но откуда-нибудь достанем. Команду уже собираем: все застолбили у себя в ежедневниках,  что в августе мы залезаем на месяц в лес и снимаем что-то непонятное,  чего никто не видел. Это будет по сюжету немножко \"\"Бонни и Клайд\"\" или \"\"Прирожденные убийцы\"\",  а по форме – Бен Риверс (британский режиссер-экспериментатор — РИА Новости). Мы напридумывали сложнейших экспериментов с разными видеоносителями,  с пленкой и не с пленкой,  жутко заморачиваемся и надеемся,  что это будет нечто абсолютно прекрасное,  беспрецедентное и никому не нужное.http://ria.ru/interview/20120503/639979717.htmlСсылка ria.ruАлександр Вартанов: ни одной лошади не осталось | РИА Новости Фото: Tvindie Сделать \"\"Дубровского\"\" на современный лад затеяли еще в 2008 году. Правда,  сценарий несколько раз переписывался,  а режиссер на полпути поменялся: начавший..\"", "lat" : "56.321677", "long" : "36.730671", "name" : "Lara Larste", "center" : 0, "dateNumber" : 1376438400000 },
{ "_id" : { "$oid" : "5770f18dec2c5aec10d81a6b" }, "date" : "14.08.2013", "body" : "\"Andrew,  у нас в Москве самый \"\"сохранившийся\"\" с точки зрения наследия район-это Замоскворечье, на мой взгляд. Просто должен быть центр с большим количеством пешеходных зон и зон с малой скоростью движения.А вот деловым \"\"комьюнити\"\" должен стать Москва-Сити, например. Центр должен быть действительно историческим и ориентирован на рекреационную деятельность.\"", "lat" : "55.739722", "long" : "37.625", "name" : "Илья Фридман", "center" : 1, "dateNumber" : 1376438400000 },
{ "_id" : { "$oid" : "5770f18dec2c5aec10d81a6c" }, "date" : "15.08.2013", "body" : "Как-будто опять в Марокко,  только в гетто...", "lat" : "55.71870633", "long" : "37.67787496", "name" : "AntiDrug", "center" : 0, "dateNumber" : 1376524800000 },
{ "_id" : { "$oid" : "5770f18dec2c5aec10d81a6d" }, "date" : "15.08.2013", "body" : "Промзона - монументальна,  бар - говнецо", "lat" : "55.75604999", "long" : "37.56098952", "name" : "Mary G", "center" : 0, "dateNumber" : 1376524800000 },
{ "_id" : { "$oid" : "5770f18dec2c5aec10d81a6e" }, "date" : "16.08.2013", "body" : "В районе Люблино мтс не особо хочет ловиться. Странно. Во-первых - Москва,  во-вторых - спальный район.", "lat" : "55.69869", "long" : "37.775101", "name" : "kutepino", "center" : 0, "dateNumber" : 1376611200000 },
{ "_id" : { "$oid" : "5770f18dec2c5aec10d81a6f" }, "date" : "16.08.2013", "body" : "Интерьеры современных аптек #ДизайнВектор по пятницам.Аптека в Москве в спальном р-не Ховрино #DesignVector pic.twitter.com/DI6DSljE78", "lat" : "55.933914", "long" : "37.649789", "name" : "pavel_puzanov", "center" : 0, "dateNumber" : 1376611200000 },
{ "_id" : { "$oid" : "5770f18dec2c5aec10d81a70" }, "date" : "16.08.2013", "body" : "SalovDmitriy сегодня в 13 : 30 собираю всех в центре Москвы,  на Октябрьской,  вот! :-)", "lat" : "55.729237", "long" : "37.611262", "name" : "litded&nbsp;", "center" : 1, "dateNumber" : 1376611200000 },
{ "_id" : { "$oid" : "5770f18dec2c5aec10d81a71" }, "date" : "16.08.2013", "body" : "\"ZyablikRus девушка создала магазин,  который называется \"\"Презервативная\"\" и находится у нас в центре Москвы,  так же заказы идут через сайт\"", "lat" : "55.760917", "long" : "37.632454", "name" : "producer_grom", "center" : 1, "dateNumber" : 1376611200000 },
{ "_id" : { "$oid" : "5770f18dec2c5aec10d81a72" }, "date" : "16.08.2013", "body" : "dashaechelon_ @OkayDokeyLokey думаю,  Ксюше надо помочь,  она не из Москвы ведь. я предлагаю встретиться сразу на Шаболовской,  да. в центре", "lat" : "55.718832", "long" : "37.608236", "name" : "absurdtheater", "center" : 1, "dateNumber" : 1376611200000 },
{ "_id" : { "$oid" : "5770f18dec2c5aec10d81a73" }, "date" : "16.08.2013", "body" : "OlegKucherenko на Красном Октябре,  на острове в центре Москвы,  E125. Хорошее место. Ещё Кузнецкий мост и Патриаршие пруды.", "lat" : "55.761747", "long" : "37.620928", "name" : "rplusn", "center" : 1, "dateNumber" : 1376611200000 },
{ "_id" : { "$oid" : "5770f18dec2c5aec10d81a74" }, "date" : "16.08.2013", "body" : "OlegKucherenko на Красном Октябре,  на острове в центре Москвы,  E125. Хорошее место. Ещё Кузнецкий мост и Патриаршие пруды.", "lat" : "55.763173", "long" : "37.59208202", "name" : "rplusn", "center" : 1, "dateNumber" : 1376611200000 },
{ "_id" : { "$oid" : "5770f18dec2c5aec10d81a75" }, "date" : "16.08.2013", "body" : "OlegKucherenko на Красном Октябре,  на острове в центре Москвы,  E125. Хорошее место. Ещё Кузнецкий мост и Патриаршие пруды.", "lat" : "55.73988", "long" : "37.609738", "name" : "rplusn", "center" : 1, "dateNumber" : 1376611200000 },
{ "_id" : { "$oid" : "5770f18dec2c5aec10d81a76" }, "date" : "16.08.2013", "body" : "moskprf СМОЛЕНСКИЙ бульвар?странно, там много исторических зданий,  в центре МОСКВЫ, я там училась, там ничего нельзя строить!", "lat" : "55.741825", "long" : "37.584565", "name" : "j963", "center" : 1, "dateNumber" : 1376611200000 },
{ "_id" : { "$oid" : "5770f18dec2c5aec10d81a77" }, "date" : "16.08.2013", "body" : "ЭТО НЕ ЭМИГРАЦИЯ,  ЭТО ЭВАКУАЦИЯГлавным барометром надвигающейся катастрофы во все времена была цена на недвижимость. Если цена идёт вниз,  если богатые люди безо всяких причин вдруг распродают дома и квартиры в элитных посёлках и кварталах,  если пустеют дворцы – жди урагана,  который не пощадит ни государство,  ни людей. Многие месяцы специалисты по недвижимости с удивлением и оторопью взирают на коттеджную Рублёвку,  Новую Ригу и иные «золотые» места,  разбросанные к западу от Москвы – загородный рай начал пустеть. Отъезд состоятельных россиян за рубеж,  в 2010-2011 годах носивший характер временного и не особо заметного явления,  превратился в повальное бегство. Стаи миллионеров и миллиардеров улетают в Англию,  США,  на Лазурный Берег и в Австралию,  бросая дома,  сады,  пруды и живущих в прудах карпов и толстолобиков. Целые гектары на Рублёвке напоминают город-призрак – вместо богатых хозяев в домах остались редкие одинокие слуги,  вместо электрического света по вечерам местность заливает мертвенный свет луны,  в уникальных садах и цветниках лезет из-под земли огромный сорняковый дьявол – борщевик. Но самую серьёзную тревогу риэлторов вызывает новая,  только что обозначившаяся тенденция – элита начала распродавать квартиры в центре Москвы. Впервые за долгие годы цена арбатских,  тверских,  хамовнических апартаментов в Москве падает. В рейтинге элитного жилья компании Knight Frank Москва – всегда изобильная и переполненная деньгами – занимает теперь 22-е место из 28 мировых мегаполисов – с отрицательной динамикой цен. http://tony-cameron.livejournal.com/95947.html Ссылка tony-cameron.livejournal.com Настают последние дни РоссииГлавным барометром надвигающейся катастрофы во все времена была цена на недвижимость. Если цена идёт вниз,  если богатые люди безо всяких причин вдруг распродают…", "lat" : "55.751186", "long" : "37.599124", "name" : "Алексей Григорьев", "center" : 1, "dateNumber" : 1376611200000 },
{ "_id" : { "$oid" : "5770f18dec2c5aec10d81a78" }, "date" : "16.08.2013", "body" : "ЭТО НЕ ЭМИГРАЦИЯ,  ЭТО ЭВАКУАЦИЯГлавным барометром надвигающейся катастрофы во все времена была цена на недвижимость. Если цена идёт вниз,  если богатые люди безо всяких причин вдруг распродают дома и квартиры в элитных посёлках и кварталах,  если пустеют дворцы – жди урагана,  который не пощадит ни государство,  ни людей. Многие месяцы специалисты по недвижимости с удивлением и оторопью взирают на коттеджную Рублёвку,  Новую Ригу и иные «золотые» места,  разбросанные к западу от Москвы – загородный рай начал пустеть. Отъезд состоятельных россиян за рубеж,  в 2010-2011 годах носивший характер временного и не особо заметного явления,  превратился в повальное бегство. Стаи миллионеров и миллиардеров улетают в Англию,  США,  на Лазурный Берег и в Австралию,  бросая дома,  сады,  пруды и живущих в прудах карпов и толстолобиков. Целые гектары на Рублёвке напоминают город-призрак – вместо богатых хозяев в домах остались редкие одинокие слуги,  вместо электрического света по вечерам местность заливает мертвенный свет луны,  в уникальных садах и цветниках лезет из-под земли огромный сорняковый дьявол – борщевик. Но самую серьёзную тревогу риэлторов вызывает новая,  только что обозначившаяся тенденция – элита начала распродавать квартиры в центре Москвы. Впервые за долгие годы цена арбатских,  тверских,  хамовнических апартаментов в Москве падает. В рейтинге элитного жилья компании Knight Frank Москва – всегда изобильная и переполненная деньгами – занимает теперь 22-е место из 28 мировых мегаполисов – с отрицательной динамикой цен. http://tony-cameron.livejournal.com/95947.html Ссылка tony-cameron.livejournal.com Настают последние дни РоссииГлавным барометром надвигающейся катастрофы во все времена была цена на недвижимость. Если цена идёт вниз,  если богатые люди безо всяких причин вдруг распродают…", "lat" : "55.761796", "long" : "37.620437", "name" : "Алексей Григорьев", "center" : 1, "dateNumber" : 1376611200000 },
{ "_id" : { "$oid" : "5770f18dec2c5aec10d81a79" }, "date" : "16.08.2013", "body" : "ЭТО НЕ ЭМИГРАЦИЯ,  ЭТО ЭВАКУАЦИЯГлавным барометром надвигающейся катастрофы во все времена была цена на недвижимость. Если цена идёт вниз,  если богатые люди безо всяких причин вдруг распродают дома и квартиры в элитных посёлках и кварталах,  если пустеют дворцы – жди урагана,  который не пощадит ни государство,  ни людей. Многие месяцы специалисты по недвижимости с удивлением и оторопью взирают на коттеджную Рублёвку,  Новую Ригу и иные «золотые» места,  разбросанные к западу от Москвы – загородный рай начал пустеть. Отъезд состоятельных россиян за рубеж,  в 2010-2011 годах носивший характер временного и не особо заметного явления,  превратился в повальное бегство. Стаи миллионеров и миллиардеров улетают в Англию,  США,  на Лазурный Берег и в Австралию,  бросая дома,  сады,  пруды и живущих в прудах карпов и толстолобиков. Целые гектары на Рублёвке напоминают город-призрак – вместо богатых хозяев в домах остались редкие одинокие слуги,  вместо электрического света по вечерам местность заливает мертвенный свет луны,  в уникальных садах и цветниках лезет из-под земли огромный сорняковый дьявол – борщевик. Но самую серьёзную тревогу риэлторов вызывает новая,  только что обозначившаяся тенденция – элита начала распродавать квартиры в центре Москвы. Впервые за долгие годы цена арбатских,  тверских,  хамовнических апартаментов в Москве падает. В рейтинге элитного жилья компании Knight Frank Москва – всегда изобильная и переполненная деньгами – занимает теперь 22-е место из 28 мировых мегаполисов – с отрицательной динамикой цен. http://tony-cameron.livejournal.com/95947.html Ссылка tony-cameron.livejournal.com Настают последние дни РоссииГлавным барометром надвигающейся катастрофы во все времена была цена на недвижимость. Если цена идёт вниз,  если богатые люди безо всяких причин вдруг распродают…", "lat" : "55.724843", "long" : "37.563847", "name" : "Алексей Григорьев", "center" : 1, "dateNumber" : 1376611200000 },
{ "_id" : { "$oid" : "5770f18dec2c5aec10d81a7a" }, "date" : "16.08.2013", "body" : "Стеше два года!Замечательный день рождения в центре CitYkids в самом сердце Москвы! Настоятельно рекомендую! И разумеется с удовольствием сфотографирую ваш праздник в этом уютном центре))Больше фотографий с праздника здесь: http://www.pushakova.com/#!/portfolio/46 Ссылка www.pushakova.com Детская и семейная фотография Детская и семейная фотография", "lat" : "55.757694", "long" : "37.607052", "name" : "Анна Пушакова - детская и семейная фотография", "center" : 1, "dateNumber" : 1376611200000 },
{ "_id" : { "$oid" : "5770f18dec2c5aec10d81a7b" }, "date" : "16.08.2013", "body" : "Армянский переулок в Москве.Армянский переулок,  Басманный район, Москва.Переулок в центре Москвы получил свое название благодаря поселившимся здесь в XVII – XVIII веке армянам. В частности,  здесь жил богатый купец и землевладелец Лазарь Назарович Лазарян,  родоначальник знаменитой династии Лазаревых. Ранее переулок называли также Столповским или Никольским по имени находящейся здесь церкви Николы Чудотворца. Всего в Армянском переулке расположено 22 дома,  среди которых имеются такие примечательные,  как музей «Огни Москвы» (дом 3/5),  дом матери Федора Ивановича Тютчева (дом 13),  бывший Лазаревский институт и посольство Республики Армения.", "lat" : "55.759831", "long" : "37.636453", "name" : "Ашот Манукян", "center" : 1, "dateNumber" : 1376611200000 },
{ "_id" : { "$oid" : "5770f18dec2c5aec10d81a7c" }, "date" : "17.08.2013", "body" : "I'm at Яросклавка на выезд (ЗаМКАДье) http://4sq.com/13uOTny&nbsp;", "lat" : "55.89474633", "long" : "37.74786694", "name" : "CATWANGS", "center" : 0, "dateNumber" : 1376697600000 },
{ "_id" : { "$oid" : "5770f18dec2c5aec10d81a7d" }, "date" : "17.08.2013", "body" : "Пацаны! Меж тем я снял офис на пресне. В центре чудесной Москвы и ищу сюда ведущего дизайнера и артдира.", "lat" : "55.761593", "long" : "37.571307", "name" : "DamarisDelacru8", "center" : 1, "dateNumber" : 1376697600000 },
{ "_id" : { "$oid" : "5770f18dec2c5aec10d81a7e" }, "date" : "17.08.2013", "body" : "teamnavalny А в центре Москвы в пределах Садового кольца где-нибудь можно сделать наклейку на авто?", "lat" : "55.763827", "long" : "37.655282", "name" : "Mara999999", "center" : 1, "dateNumber" : 1376697600000 },
{ "_id" : { "$oid" : "5770f18dec2c5aec10d81a7f" }, "date" : "17.08.2013", "body" : "Даа,  в центре Москвы горя много:( Слепая старушка... / Yeah,  in the center of Moscow,  a lot of poor… http://instagram.com/p/dG6_OiTPnr/", "lat" : "55.75156", "long" : "37.599134", "name" : "hammyGT", "center" : 1, "dateNumber" : 1376697600000 },
{ "_id" : { "$oid" : "5770f18dec2c5aec10d81a80" }, "date" : "18.08.2013", "body" : "Отличное местечко в самом сердце МСК.. дикий закос под совок.....)))", "lat" : "55.76162439", "long" : "37.61967875", "name" : "Psvel A.", "center" : 1, "dateNumber" : 1376784000000 },
{ "_id" : { "$oid" : "5770f18dec2c5aec10d81a81" }, "date" : "18.08.2013", "body" : "fuck_fabray :ССС где-то в Москве,  я уже не помню. Но далеко от центра,  тк я живу в центре,  а туда мне 2 часа пилить,  но я пойду,  это точно", "lat" : "55.775061", "long" : "37.596727", "name" : "GoldQuinn", "center" : 1, "dateNumber" : 1376784000000 },
{ "_id" : { "$oid" : "5770f18dec2c5aec10d81a82" }, "date" : "18.08.2013", "body" : "Smokie +вот эти ребята 10 минут назад пели лайв в 60 метрах от моего дома. Замкадье отмечает день города. + Пелагея pic.twitter.com/XvgkZ0olqK", "lat" : "55.245595", "long" : "37.620469", "name" : "bra1nka", "center" : 0, "dateNumber" : 1376784000000 },
{ "_id" : { "$oid" : "5770f18dec2c5aec10d81a83" }, "date" : "18.08.2013", "body" : "Я думал это в моем замкадье в начале 90-х было жестко,  а тут почитаешь всякое и даже светлый образ совка тускнеет http://pocket.co/s4qNc&nbsp;", "lat" : "55.689502", "long" : "37.576861", "name" : "a3b7", "center" : 1, "dateNumber" : 1376784000000 },
{ "_id" : { "$oid" : "5770f18dec2c5aec10d81a84" }, "date" : "18.08.2013", "body" : "L_Dime @lena_krina @SmokyMo46 говорят Ленин мужик ждет ее в центре Москвы на красной площади. Ну как ждет — спит.", "lat" : "55.753658", "long" : "37.619889", "name" : "Scut36", "center" : 1, "dateNumber" : 1376784000000 },
{ "_id" : { "$oid" : "5770f18dec2c5aec10d81a85" }, "date" : "18.08.2013", "body" : "Закон гор в центре Москвы http://www.bigcaucasus.com/review/people/07-08-2013/85307-ukrast_nevestu-0/&nbsp;… Украсть невесту гораздо дешевле и меньше всех этих национальных традиционных заморочек.", "lat" : "55.766628", "long" : "37.663232", "name" : "Leshechkin21", "center" : 1, "dateNumber" : 1376784000000 },
{ "_id" : { "$oid" : "5770f18dec2c5aec10d81a86" }, "date" : "18.08.2013", "body" : "Сюрприз! Ужин на крыше дома в центре Москвы!&nbsp;#сюприз&nbsp;#романтик&nbsp;#муж&nbsp;#деньрождения&nbsp;#счастье@ Чентрале&nbsp;http://instagram.com/p/dKSvDlKVRf/", "lat" : "55.745664", "long" : "37.557893", "name" : "Евгения Муравьёва", "center" : 1, "dateNumber" : 1376784000000 },
{ "_id" : { "$oid" : "5770f18dec2c5aec10d81a87" }, "date" : "18.08.2013", "body" : "#антидилер #крск #изжизнинаркоманаДрузья,  случай,  конечно,  не недавний,  но все же достоин нашего внимания. 28-летний житель Подмосковья угнал из-под носа автоиспекторов машину ДПС. Это произошло в конце апреля в час-пик в центре Москвы. На площади Никитских ворот мужчина сел в полицейский транспорт и попытался скрыться,  но за ним тут же было организовано преследование. При въезде в Маяковский тоннель угонщик врезался в несколько автомобилей.Гонщика доставили в реанимацию с открытой черепно-мозговой травмой и множественными ушибами после аварии,  в которую он попал на угнанной полицейской машине.Как потом выяснилось,  дерзкое преступление совершил житель Подмосковья Сергей Корнев. Камера,  установленная в полицейском автомобиле,  сняла угонщика за рулем. Судя по поведению,  мужчина находился в абсолютно невменяемом состоянии. Тем не менее,  на какое-то время ему удалось оторваться от полицейской погони. При въезде в тоннель на Садовом кольце по Триумфальной площади подозреваемый не справился с управлением и совершил столкновение еще с тремя автомобилями.Пострадали Ford,  Mazda и Infiniti. После этого Корнев выскочил из угнанного авто и попытался сбежать,  но попал под колеса другой машины,  после чего в тяжелом состоянии был отправлен в реанимацию.Вот так вот развлекаются московские наркоманы. Нет словНаркоман Сергей Корнев угнал машину ДПС (Садовое Кольцо) 1:52", "lat" : "55.757712", "long" : "37.598393", "name" : "АнтиДилер Красноярск", "center" : 1, "dateNumber" : 1376784000000 },
{ "_id" : { "$oid" : "5770f18dec2c5aec10d81a88" }, "date" : "18.08.2013", "body" : "сегодня было прекрасное утро на работе)))разбудили друзья(работаю вахтовым методом), вообщем под окном, на газончике, парень с девушкой занимались сексом(и это в центре москвы, напротив Храма Христа спасителя))Всем добра и побольше секса)P.S.участники сегодняшнего события, если читаете, придите заберите очки, вы забыли))", "lat" : "55.744636", "long" : "37.605342", "name" : "Поделись новостью с нами)", "center" : 1, "dateNumber" : 1376784000000 },
{ "_id" : { "$oid" : "5770f18dec2c5aec10d81a89" }, "date" : "19.08.2013", "body" : "Опять еду в центр", "lat" : "55.80358516", "long" : "37.42276274", "name" : "A_Barranova&nbsp;", "center" : 0, "dateNumber" : 1376870400000 },
{ "_id" : { "$oid" : "5770f18dec2c5aec10d81a8a" }, "date" : "19.08.2013", "body" : "Настоящие красотки в центре Москвы у метро Арбатская http://prostitutki.fm/ru/?metro=128&nbsp;", "lat" : "55.752091", "long" : "37.601434", "name" : "SashaEkimenko", "center" : 1, "dateNumber" : 1376870400000 },
{ "_id" : { "$oid" : "5770f18dec2c5aec10d81a8b" }, "date" : "19.08.2013", "body" : "oleg_kozyrev 19 днем в центре Москвы к вечеру пошли к Белому дому и ночь в цепи вокруг БД и так все остальные дни.", "lat" : "55.755037", "long" : "37.572935", "name" : "aprol2000", "center" : 1, "dateNumber" : 1376870400000 },
{ "_id" : { "$oid" : "5770f18dec2c5aec10d81a8c" }, "date" : "19.08.2013", "body" : "Небольшой островок качественной современной архитектуры в центре Москвы - жилой комплекс «Одиннадцать Станиславского». Неожиданно и приятно. Можно ходить повышать настроение) Спасибо,  Лиза", "lat" : "55.744627", "long" : "37.659992", "name" : "Мария Павлюк", "center" : 1, "dateNumber" : 1376870400000 },
{ "_id" : { "$oid" : "5770f18dec2c5aec10d81a8d" }, "date" : "19.08.2013", "body" : "Объявление: Вы слыхали,  как поют дрозды? А как ржут лошади? Лают псы? Орут коты? Только для Вас - прекрасные квартиры в центре Москвы,  возле птичьего рынка!", "lat" : "55.67952", "long" : "37.837486", "name" : "Лиза Стороженко", "center" : 1, "dateNumber" : 1376870400000 },
{ "_id" : { "$oid" : "5770f18dec2c5aec10d81a8e" }, "date" : "19.08.2013", "body" : "я недавно шла там и обрадовалась. вот бы все улицы внутри Садового сделали пешеходными. ну кроме Тверской,  Моховой и Якиманки. главный вопрос: Петровка тоже станет пешеходной?", "lat" : "55.764703", "long" : "37.616629", "name" : "Мария Ратиани", "center" : 1, "dateNumber" : 1376870400000 },
{ "_id" : { "$oid" : "5770f18dec2c5aec10d81a8f" }, "date" : "19.08.2013", "body" : "Задержан москвич,  предположительно стрелявший по кавказцам на Садовом кольце - МК http://www.mk.ru/incident/crime/article/2013/08/19/901745-zaderzhan-moskvich-predpolozhitelno-strelyavshiy-po-kavkaztsam-na-sadovom-koltse.html&nbsp;…", "lat" : "55.773611", "long" : "37.621667", "name" : "adamibri", "center" : 1, "dateNumber" : 1376870400000 },
{ "_id" : { "$oid" : "5770f18dec2c5aec10d81a90" }, "date" : "20.08.2013", "body" : "Чертаново,  окраина Москвы,  плюша,  Антон,  не забуду :З спасибо,  за это день &lt;З", "lat" : "55.614377", "long" : "37.5946", "name" : "Linkinaap", "center" : 0, "dateNumber" : 1376956800000 },
{ "_id" : { "$oid" : "5770f18dec2c5aec10d81a91" }, "date" : "20.08.2013", "body" : "Друзья! Появилось классное помещение в аренду под студию звукозаписи в центре Москвы. Бомбоубежище под… http://instagram.com/p/dO-4tYK2tL/&nbsp;", "lat" : "55.781919", "long" : "37.704731", "name" : "AKireev", "center" : 1, "dateNumber" : 1376956800000 },
{ "_id" : { "$oid" : "5770f18dec2c5aec10d81a92" }, "date" : "20.08.2013", "body" : "Вот вы живете спокойно,  а я обнаружил труп в центре Москвы. Вызвал полицию,  скорую,  рыбнадзор. Жду. @… http://instagram.com/p/dOzAkeK6xi/&nbsp;", "lat" : "55.73398503", "long" : "37.59903431", "name" : "Boogaard_2", "center" : 1, "dateNumber" : 1376956800000 },
{ "_id" : { "$oid" : "5770f18dec2c5aec10d81a93" }, "date" : "20.08.2013", "body" : "Если кто-нибудь сейчас в центре Москвы,  идите в ГУМ - в 14:30 там будет играть веселый оркестр Ricciotti http://www.youtube.com/watch?v=0q5J56lksQc&nbsp;… @villagemsk", "lat" : "55.754699", "long" : "37.621772", "name" : "apalevich", "center" : 1, "dateNumber" : 1376956800000 },
{ "_id" : { "$oid" : "5770f18dec2c5aec10d81a94" }, "date" : "20.08.2013", "body" : "mafutkal блин) ты в центре Москвы,  любой бар! Куча подворотен,  да даже http://www.podushkin.ru/hotel/3/&nbsp; на крайняк! )))", "lat" : "55.768897", "long" : "37.616326", "name" : "klaip", "center" : 1, "dateNumber" : 1376956800000 },
{ "_id" : { "$oid" : "5770f18dec2c5aec10d81a95" }, "date" : "20.08.2013", "body" : "7 сентября в 22-00 мы все соберемся в центре города,  рядом с «Москва-Сити»,  чтобы видеть с набережной,  известного моста или с верхней палубы корабля праздничный Московский салют в честь Дня Города! Раскаты залпов салюта будут знаком о том,  что посадка на грандиозный,  всенародный,  последний рейс сезона началась! Правительства Москвы перед выборами в честь Дня Города гарантирует нам хорошую погоду: тучи в этот день будут разгонять! Быть в центре праздничных событий,  видеть Матушку - Златоглавую в праздничном убранстве не в толпе на Воробьёвых горах,  а с роскошного,  самого большого судна Москвы (вместимостью до 2000 человек) сможете только ВЫ! А главное: в «КРУГУ СВОИХ»!", "lat" : "55.752212", "long" : "37.542159", "name" : "Серджио Кингли", "center" : 1, "dateNumber" : 1376956800000 },
{ "_id" : { "$oid" : "5770f18dec2c5aec10d81a96" }, "date" : "20.08.2013", "body" : "\"Друзья,  ищу зал в центре Москвы,  на 20-30 человек,  идеально — йога-студия. Кидайте контакты тех мест,  где вы бывали,  помогите Запчику! :)Месяц в Капдаге голышом. То есть днём голышом,  а вечером и ночью...20 авг 2013 в 19:23|Это спам|Поделиться|Мне нравится239 комментариевEvgenia Panevasatnam.ruСсылка satnam.ruКлуб СатНамСатНам - йога клуб. Москва,  Покровка 621 авг в 9:59|Это спам|Ответить|Мне нравится1Артем Чибиревhttp://vk.com/maya_teplaya Спроси у Маши про йога-центр \"\" Твой мир \"\" мир на электрозаводской ,  очень уютное место. И народ должен поместиться22 авг в 1:08|Это спам|Ответить|Мне нравитсяЗап ЗапСпасибо,  друзья! :)22 авг в 10:02|Ответить|Мне нравитсяСаша Киракосьянhttps://vk.com/workshoploft отличный лофт моих друзей на Электрозаводе! сама была там неоднократно\"", "lat" : "55.781617", "long" : "37.704985", "name" : "Зап Зап", "center" : 1, "dateNumber" : 1376956800000 },
{ "_id" : { "$oid" : "5770f18dec2c5aec10d81a97" }, "date" : "20.08.2013", "body" : "я то из Истры не долеко от Москвы:DDDD", "lat" : "55.914312", "long" : "36.860302", "name" : "Елена Решетникова", "center" : 0, "dateNumber" : 1376956800000 },
{ "_id" : { "$oid" : "5770f18dec2c5aec10d81a98" }, "date" : "21.08.2013", "body" : "Главная площадь страны опять готовится к выступлению кого-то", "lat" : "55.7542645", "long" : "37.62019157", "name" : "Viacheslav D.", "center" : 1, "dateNumber" : 1377043200000 },
{ "_id" : { "$oid" : "5770f18dec2c5aec10d81a99" }, "date" : "21.08.2013", "body" : "#чебуречная #глубинка центра москвы @ Школа №19 им. В. Г. Белинского http://instagram.com/p/dSLDwVumL2/&nbsp;", "lat" : "55.74420459", "long" : "37.62150049", "name" : "dreamer_nf", "center" : 0, "dateNumber" : 1377043200000 },
{ "_id" : { "$oid" : "5770f18dec2c5aec10d81a9a" }, "date" : "21.08.2013", "body" : "I'm at Замкадье http://4sq.com/19yrW1Z&nbsp;", "lat" : "55.89226578", "long" : "37.72687256", "name" : "dasha_shport", "center" : 0, "dateNumber" : 1377043200000 },
{ "_id" : { "$oid" : "5770f18dec2c5aec10d81a9b" }, "date" : "21.08.2013", "body" : "Я теперь знаю!!!!! почему на @ruspostofficial так плохо работает!!!))))) И это отделение в центре Москвы!!! pic.twitter.com/tFnd7MqpdO", "lat" : "55.738375", "long" : "37.652182", "name" : "annyready", "center" : 1, "dateNumber" : 1377043200000 },
{ "_id" : { "$oid" : "5770f18dec2c5aec10d81a9c" }, "date" : "21.08.2013", "body" : "@gusak_av кстати,  о рынках. Здорово было бы убрать Копер из центра города... Грязный,  уродливый привет из прошлого по форме и содержанию...", "lat" : "55.708412", "long" : "37.590181", "name" : "bob_vdrug", "center" : 1, "dateNumber" : 1377043200000 },
{ "_id" : { "$oid" : "5770f18dec2c5aec10d81a9d" }, "date" : "21.08.2013", "body" : "Я думал уже прошло то время,  когда в центре Москвы машины на тротуарах ремонтируют. @ Шухова, 19 http://instagram.com/p/dRCAuRiWh7/&nbsp;", "lat" : "55.716507", "long" : "37.610291", "name" : "MonkasteR", "center" : 1, "dateNumber" : 1377043200000 },
{ "_id" : { "$oid" : "5770f18dec2c5aec10d81a9e" }, "date" : "21.08.2013", "body" : "@AdmoniMile не) не на ави) в центре в Москве на Новослободской )", "lat" : "55.779373", "long" : "37.601302", "name" : "Amam_Ostrovskay", "center" : 1, "dateNumber" : 1377043200000 },
{ "_id" : { "$oid" : "5770f18dec2c5aec10d81a9f" }, "date" : "21.08.2013", "body" : "\"Сегодня возвращалась с подругами с Дня Рождения. Уже было поздно и мы шли пешком чтобы поймать такси. Вдруг навстречу к нам бежит лицо кавказской наружности и кричит что-то. Мы вначале не обратили на него внимания. А потом видим за ним бежит другой такой же и с огромным ножом. И это в центре Москвы,  на фрунзенской набережной. Лица кавказской национальности бегают друг за другом с ножами. Афигеть. Наши кавалеры остановили того который был с ножом. Пытались их разнять. Он был очень агрессивен. И у него явно были намерения зарезать своего собрата. И если честно у меня были мысли что сейчас он набросится и на нас тоже. Потом он вырвался и снова бросился за ним. Повалил его возле дороги и стал пинать ногами и уже замахивался зарезать его. Тут стало совсем не по себе. Никому не хотелось стать свидетелями хладнокровного убийства и ребята снова кинулись к ним разнимать рискуя получить нож в живот. Лезвие ножа было очень большим. Такими ножами только туши на мясокомбинате разделывать. Потом,  когда их разняли тот что с ножом сказал нам то,  после чего у меня произошел переворот в сознании. Он сказал нам что тот,  за кем он гнался на самом деле хотел его ограбить и угрожал ему разбитой бутылкой. И правда мы заметили что у убегавшего была в руках разбитая бутылка в виде розочки и он был очень перепуган. И тут он такой говорит нам: \"\"Я россиянин. Я гражданин Российской Федерации. Он хотэл меня ограбить и я защищался слущай. Он напал на меня. Что мне было делать? Помогите мне поймать его. Понаехали тут.\"\"Это пипец товарищи. То есть оказывается что виновник беспорядка не тот,  что бегал с ножом,  а убегавший от него и оба называют себя россиянами,  понял да. Принять чью-то сторону в такой ситуации очень сложно ведь инстинкт самосохранения как бы намекает нам что тот что с ножом куда опаснее чем тот,  который спрятался за спинами наших ребят в надежде спастись от своего соплеменника. Ребята тоже были в недоумении. К счастью горе-грабитель воспользовавшись моментом решил дать дёру. Того который был с ножом нам удалось разговорить и немного успокоить. После чего он убрал свой нож и ретировался. Вот так вот. Они уже своих же понаехавшими называют и гоняются друг за другом с ножами по улицам Москвы. Кто же мы тогда?! :))#москвабад #москва #собянин #понаехали #даги #чечня #чуркистан #гастарбайтер #кадыров #мигранты #хачи\"", "lat" : "55.721442", "long" : "37.585684", "name" : "Света Макарова", "center" : 1, "dateNumber" : 1377043200000 },
{ "_id" : { "$oid" : "5770f18dec2c5aec10d81aa0" }, "date" : "21.08.2013", "body" : "Прогулка по центру Москвы при свете фонарей. Теплый ветерок,  изумительная подсветка,  подозрительно мало народа. Чеховская,  камергерский,  площадь перед Большим театром.. Уличные яркие кафешки и тут же ремонтные работы всей улицы.Любимый и родной противоречивый город!Мечты сбываются ??*Тут должна быть ссылка на подходящую песню,  но выбор музыки не по моей части. Just imagine*", "lat" : "55.765867", "long" : "37.608322", "name" : "Александра Надина (Терехова)", "center" : 1, "dateNumber" : 1377043200000 },
{ "_id" : { "$oid" : "5770f18dec2c5aec10d81aa1" }, "date" : "21.08.2013", "body" : "Прогулка по центру Москвы при свете фонарей. Теплый ветерок,  изумительная подсветка,  подозрительно мало народа. Чеховская,  камергерский,  площадь перед Большим театром.. Уличные яркие кафешки и тут же ремонтные работы всей улицы.Любимый и родной противоречивый город!Мечты сбываются ??*Тут должна быть ссылка на подходящую песню,  но выбор музыки не по моей части. Just imagine*", "lat" : "55.759683", "long" : "37.61299", "name" : "Александра Надина (Терехова)", "center" : 1, "dateNumber" : 1377043200000 },
{ "_id" : { "$oid" : "5770f18dec2c5aec10d81aa2" }, "date" : "21.08.2013", "body" : "Прогулка по центру Москвы при свете фонарей. Теплый ветерок,  изумительная подсветка,  подозрительно мало народа. Чеховская,  камергерский,  площадь перед Большим театром.. Уличные яркие кафешки и тут же ремонтные работы всей улицы.Любимый и родной противоречивый город!Мечты сбываются ??*Тут должна быть ссылка на подходящую песню,  но выбор музыки не по моей части. Just imagine*", "lat" : "55.759223", "long" : "37.61909", "name" : "Александра Надина (Терехова)", "center" : 1, "dateNumber" : 1377043200000 },
{ "_id" : { "$oid" : "5770f18dec2c5aec10d81aa3" }, "date" : "22.08.2013", "body" : "Зарисовка из ближнего замкадья: ))))) http://vvv-ig.livejournal.com/502682.html", "lat" : "55.769814", "long" : "36.950598", "name" : "XS_71", "center" : 0, "dateNumber" : 1377129600000 },
{ "_id" : { "$oid" : "5770f18dec2c5aec10d81aa4" }, "date" : "22.08.2013", "body" : "I'm at Замкадье http://4sq.com/13TFuRs", "lat" : "55.88489545", "long" : "37.44099276", "name" : "Karabas308", "center" : 0, "dateNumber" : 1377129600000 },
{ "_id" : { "$oid" : "5770f18dec2c5aec10d81aa5" }, "date" : "22.08.2013", "body" : "прямо по курсу вещает #пиздец! #пробка @ ЗаМКАДье))) http://instagram.com/p/dTy4rnxqPh/&nbsp;", "lat" : "55.92519566", "long" : "37.54599186", "name" : "Luberetskaya_1", "center" : 0, "dateNumber" : 1377129600000 },
{ "_id" : { "$oid" : "5770f18dec2c5aec10d81aa6" }, "date" : "22.08.2013", "body" : "Древняя улица в центре Москвы http://fototelegraf.ru/?p=188947&nbsp; http://fototelegraf.ru/?p=188947&nbsp;", "lat" : "55.728344", "long" : "37.658917", "name" : "AlyonaSamarina", "center" : 1, "dateNumber" : 1377129600000 },
{ "_id" : { "$oid" : "5770f18dec2c5aec10d81aa7" }, "date" : "22.08.2013", "body" : "Никольская ул.в центре Москвы.Вдали виднеется здание ФСБ на ул.Лубянка. pic.twitter.com/TJ4dyhamXQ", "lat" : "55.758316", "long" : "37.624127", "name" : "iiiiiiii1111", "center" : 1, "dateNumber" : 1377129600000 },
{ "_id" : { "$oid" : "5770f18dec2c5aec10d81aa8" }, "date" : "22.08.2013", "body" : "вышла сейчас из машины в центре Москвы и вдруг остро почувствовала запах моря. Довольно нелепо-сентиментально,  но было очень реалистично", "lat" : "55.763416", "long" : "37.642289", "name" : "yukiseleva", "center" : 1, "dateNumber" : 1377129600000 },
{ "_id" : { "$oid" : "5770f18dec2c5aec10d81aa9" }, "date" : "22.08.2013", "body" : "Для временной работы в г. Москва,  ориентировочно на 45 дней нужны специалисты по сканированию.Работа сутками,  в типографии,  в центре Москвы (Кузнецкий Мост)Требования : опыт работы на широкоформатном сканирующем оборудовании или со схожей полиграфической техникой. Ответственные,  усидчивые,  готовые к напряженной работе сутками.Сутки работаете - 2 дня отдыхаете.Суть работы : сканирование цветной проектной документации - А2 и А1.Работа с начала сентября.Оплата наличными или на карту.Подробности - в личку.Сразу пишите свой опыт и знания техники.Пишите,  пжл,  только те,  кто соответствует основному требованию!!!!", "lat" : "55.761796", "long" : "37.620437", "name" : "Андрей Елисеев", "center" : 1, "dateNumber" : 1377129600000 },
{ "_id" : { "$oid" : "5770f18dec2c5aec10d81aaa" }, "date" : "22.08.2013", "body" : "В августе мне довелось погулять по центру Москвы,  провести несколько экскурсий.. и вот какая мысль пришла мне в голову: живем мы тут рядом с Кремлем,  т.е. в Москве,  а некоторые были там еще в 80х годах прошлого века :)) когда Вы там были последний раз?Московский Кремль,  2013Анонимное голосованиеДавно ли Вы были в Московском Кремле?в этом годулет 5 назадбольше 10 лет назадПолучить кодПроголосовало 6 человек.", "lat" : "55.755243", "long" : "37.619179", "name" : "Фотограф Екатерина Алалыкина", "center" : 1, "dateNumber" : 1377129600000 },
{ "_id" : { "$oid" : "5770f18dec2c5aec10d81aab" }, "date" : "22.08.2013", "body" : "Грёбаная Москва!Сегодня ехал 24 км из центра на машине 6 долбанных часов! Я хожу быстрее! И из них 3 часа стоял на въезд в БУТОВО!!!", "lat" : "55.545921", "long" : "37.58523", "name" : "Леха Богданов", "center" : 0, "dateNumber" : 1377129600000 },
{ "_id" : { "$oid" : "5770f18dec2c5aec10d81aac" }, "date" : "23.08.2013", "body" : "хорошая прогулка была по главной площаде страны,  но народу пиздец много (извините). Если в общем,  то одного раза хватило,  больше не поеду.", "lat" : "55.7542645", "long" : "37.62019157", "name" : "Julia T.", "center" : 1, "dateNumber" : 1377216000000 },
{ "_id" : { "$oid" : "5770f18dec2c5aec10d81aad" }, "date" : "23.08.2013", "body" : "ДЫРА! Страшная дыра", "lat" : "55.69993677", "long" : "37.82833099", "name" : "Max K.", "center" : 0, "dateNumber" : 1377216000000 },
{ "_id" : { "$oid" : "5770f18dec2c5aec10d81aae" }, "date" : "23.08.2013", "body" : "придется ехать из моего уютненького сраненького юга Москвы в этот гребаный центр на Проспект мира. а потом еще пешком пизддовать 10 минут.", "lat" : "55.77953", "long" : "37.633492", "name" : "itstimetoMARS", "center" : 1, "dateNumber" : 1377216000000 },
{ "_id" : { "$oid" : "5770f18dec2c5aec10d81aaf" }, "date" : "23.08.2013", "body" : "За окном ночь,  пью чай из подстаканника @ замкадье http://instagram.com/p/dXTXC5lMbc/", "lat" : "55.81576168", "long" : "37.3433723", "name" : "vladimirovich", "center" : 0, "dateNumber" : 1377216000000 },
{ "_id" : { "$oid" : "5770f18dec2c5aec10d81ab0" }, "date" : "23.08.2013", "body" : "\"В #Лианозово (на отшибе Москвы,  д. Фуниково),  \"\"как всегда\"\" — ни дождя,  ни мэра,  ни града... http://twitpic.com/d9uuh6\"", "lat" : "55.898272", "long" : "37.586789", "name" : "volgin7", "center" : 0, "dateNumber" : 1377216000000 },
{ "_id" : { "$oid" : "5770f18dec2c5aec10d81ab1" }, "date" : "23.08.2013", "body" : "Угараздило же меня проколоть колесо в центре Москвы,  вечером,  в ливень... Жду спасателей)", "lat" : "55.76189401", "long" : "37.62746999", "name" : "SuperRyusuke&nbsp;", "center" : 1, "dateNumber" : 1377216000000 },
{ "_id" : { "$oid" : "5770f18dec2c5aec10d81ab2" }, "date" : "23.08.2013", "body" : "Тем временем в центре Москвы. http://instagram.com/p/dXHlOZyy1K/&nbsp;", "lat" : "55.75648", "long" : "37.600449", "name" : "Vorewig", "center" : 1, "dateNumber" : 1377216000000 },
{ "_id" : { "$oid" : "5770f18dec2c5aec10d81ab3" }, "date" : "23.08.2013", "body" : "Есть желающие в центре часов в 21 отужинать и прогуляться? Пишите-звоните. Я как обычно с обходом буду проверять все ли в порядке в Москве", "lat" : "55.7702", "long" : "37.596059", "name" : "usolt", "center" : 1, "dateNumber" : 1377216000000 },
{ "_id" : { "$oid" : "5770f18dec2c5aec10d81ab4" }, "date" : "23.08.2013", "body" : "Вот такая симпотная церквушка в центре Москвы!) Сегодня с утра зашли с сестрой туда,  очень позитивное… http://instagram.com/p/dWZGiQL-ok/&nbsp;", "lat" : "55.73601481", "long" : "37.56914797", "name" : "MPakina", "center" : 1, "dateNumber" : 1377216000000 },
{ "_id" : { "$oid" : "5770f18dec2c5aec10d81ab5" }, "date" : "23.08.2013", "body" : "Ru Bad Boy _Анастасию Корочкову_ поздравляю с наступающим днем рождения,  будь самой лучшей! Подарок Настенька уже на стене твоего дома,  такой же рисунок будет в центре города для клипа твоего и конечно твои рисунки будут в Москве прям на красной площади!Anastasia Korochkova", "lat" : "55.753588", "long" : "37.622398", "name" : "Влад Корочков", "center" : 1, "dateNumber" : 1377216000000 },
{ "_id" : { "$oid" : "5770f18dec2c5aec10d81ab6" }, "date" : "23.08.2013", "body" : "\"Просто жееесть) С удовольствием пожил бы хоть месяцок в таком домике)\"\"Если уехать подальше из центра Москвы,  в Крылатское,  то там за 360 тысяч рублей можно арендовать 10-комнатный 3-этажный коттедж (площадью 700 кв. м),  В качестве бонуса для арендатора — участок в 50 соток с ландшафтным дизайном и выходом к Москве-реке (со своим причалом,  ангаром для яхты,  теннисным кортом,  гаражом на 4 автомобиля,  сауной,  бассейном и спортзалом)\"\". (\"\"Ъ\"\")\"", "lat" : "55.756776", "long" : "37.408036", "name" : "Александр Дубовик", "center" : 0, "dateNumber" : 1377216000000 },
{ "_id" : { "$oid" : "5770f18dec2c5aec10d81ab7" }, "date" : "24.08.2013", "body" : "Ехать в центр Москвы за вай фаем? Дада,  это моя сестра (@ ТЦ «Охотный ряд» / @OhotnyRyad Mall w/ 32 others) http://4sq.com/1f9jjvC", "lat" : "55.75581009", "long" : "37.61465549", "name" : "VikiErmakova", "center" : 1, "dateNumber" : 1377302400000 },
{ "_id" : { "$oid" : "5770f18dec2c5aec10d81ab8" }, "date" : "24.08.2013", "body" : "Многие москвичи считают,  что «от Москвы до самых до окраин» - это до третьего транспортного кольца.", "lat" : "55.792355", "long" : "37.583109", "name" : "Shulz", "center" : 1, "dateNumber" : 1377302400000 },
{ "_id" : { "$oid" : "5770f18dec2c5aec10d81ab9" }, "date" : "24.08.2013", "body" : "tatohaaa ахахахахха , ну иногда можно )))Че за подмосковье то у тебя ?", "lat" : "55.782751", "long" : "38.649845", "name" : "maximus880", "center" : 0, "dateNumber" : 1377302400000 },
{ "_id" : { "$oid" : "5770f18dec2c5aec10d81aba" }, "date" : "24.08.2013", "body" : "Совершенно бездарное разбазаривание территории в центре Москвы для пенсионеров и хипсторов", "lat" : "55.77073154", "long" : "37.60937691", "name" : "Евгений Н.", "center" : 1, "dateNumber" : 1377302400000 },
{ "_id" : { "$oid" : "5770f18dec2c5aec10d81abb" }, "date" : "24.08.2013", "body" : "Крутое место. Покупаете у колоритного дядьки справку и вперед - купаться под открытым небом в центре Москвы.", "lat" : "55.71307854", "long" : "37.55820036", "name" : "minakovas", "center" : 1, "dateNumber" : 1377302400000 },
{ "_id" : { "$oid" : "5770f18dec2c5aec10d81abc" }, "date" : "24.08.2013", "body" : "Очаровательный китайский домик в центре Москвы. http://instagram.com/p/dZxqWfwBGW/&nbsp;", "lat" : "55.764503", "long" : "37.636578", "name" : "Lyudmila_o_o", "center" : 1, "dateNumber" : 1377302400000 },
{ "_id" : { "$oid" : "5770f18dec2c5aec10d81abd" }, "date" : "24.08.2013", "body" : "Шла по арбату сегодня и встретила...Мечу с Лори! Вот так случайно в центре города Москвы встречаются люди из вирта)", "lat" : "55.752598", "long" : "37.5892", "name" : "lagunakou", "center" : 1, "dateNumber" : 1377302400000 },
{ "_id" : { "$oid" : "5770f18dec2c5aec10d81abe" }, "date" : "24.08.2013", "body" : "Марку 8 лет и он учится сейчас печь калачи в центре Москвы на Кузнецком мосту,  принимая участие… http://instagram.com/p/dY_zFvHlZS/&nbsp;", "lat" : "55.761796", "long" : "37.620437", "name" : "kaluzhano4ka", "center" : 1, "dateNumber" : 1377302400000 },
{ "_id" : { "$oid" : "5770f18dec2c5aec10d81abf" }, "date" : "25.08.2013", "body" : "Культурный центр Лубянки нам памятный календарь подарил.", "lat" : "55.75984283", "long" : "37.62800217", "name" : "barsubars", "center" : 1, "dateNumber" : 1377388800000 },
{ "_id" : { "$oid" : "5770f18dec2c5aec10d81ac0" }, "date" : "25.08.2013", "body" : "Продать готовую квартиру в центре Москвы - Наставнический переулок,  дом 6. Фото. Метро Курская http://www.prodam-elite.ru/doska/16706/prodat-gotovuyu-kvartiru-v-tsentre-moskvy-nastavnicheskii-pereulok-dom-6-foto-metro-kurskaya&nbsp;…", "lat" : "55.751593", "long" : "37.66297", "name" : "maxim37522480", "center" : 1, "dateNumber" : 1377388800000 },
{ "_id" : { "$oid" : "5770f18dec2c5aec10d81ac1" }, "date" : "26.08.2013", "body" : "Продам элитную квартиру в центре Москвы - метро Театральная. Улица Петровка,  дом 17 http://www.alparusa-rent-sale.ru/readme/12927/prodam-elitnuyu-kvartiru-v-tsentre-moskvy-metro-teatralnaya-ulitsa-petrovka-dom-17&nbsp;…", "lat" : "55.76447", "long" : "37.616616", "name" : "maxim37522480", "center" : 1, "dateNumber" : 1377475200000 },
{ "_id" : { "$oid" : "5770f18dec2c5aec10d81ac2" }, "date" : "26.08.2013", "body" : "Оказывается,  утром в центре почти нет людей) @ Метро Арбатская,  Филёвская линия (metro Arbatskaya, … http://instagram.com/p/dgEoeaFptM/", "lat" : "55.75238979", "long" : "37.60206789", "name" : "altilium", "center" : 1, "dateNumber" : 1377475200000 },
{ "_id" : { "$oid" : "5770f18dec2c5aec10d81ac3" }, "date" : "26.08.2013", "body" : "Центр Москвы красив. Я под впечатлением. Красная площадь,  музеи,  сады... Всё шикарно.", "lat" : "55.7542645", "long" : "37.62019157", "name" : "Rus_cigano", "center" : 1, "dateNumber" : 1377475200000 },
{ "_id" : { "$oid" : "5770f18dec2c5aec10d81ac4" }, "date" : "26.08.2013", "body" : "Москва-центр-Садовое кольцо .... Это пи@дец !(((( Я так измучилась ,  хочу в метро снова ????", "lat" : "55.74448239", "long" : "37.58349895", "name" : "Lisa_Helga", "center" : 1, "dateNumber" : 1377475200000 },
{ "_id" : { "$oid" : "5770f18dec2c5aec10d81ac5" }, "date" : "26.08.2013", "body" : "Потрясающе уютное место с вкусной и сытной едой по доступным ценам) очень приятно,  что в центре Москвы есть такое место)", "lat" : "55.76662263", "long" : "37.60205297", "name" : "Анастасия", "center" : 1, "dateNumber" : 1377475200000 },
{ "_id" : { "$oid" : "5770f18dec2c5aec10d81ac6" }, "date" : "27.08.2013", "body" : "Красота!Люблю старую Москву!:) “@moscowwalkslive: Третьяковский проезд,  1969 г. pic.twitter.com/P7unyKFs38”", "lat" : "55.7589", "long" : "37.623026", "name" : "Gavoronok88", "center" : 1, "dateNumber" : 1377561600000 },
{ "_id" : { "$oid" : "5770f18dec2c5aec10d81ac7" }, "date" : "27.08.2013", "body" : "VirginEarsGirl вот и мне обидно. Чистые Пруды всяко удобнее Бауманской. центр есть центр.", "lat" : "55.75955785", "long" : "37.6473357", "name" : "di_lissa", "center" : 1, "dateNumber" : 1377561600000 },
{ "_id" : { "$oid" : "5770f18dec2c5aec10d81ac8" }, "date" : "27.08.2013", "body" : "офигительно прошёлся по центру Москвы,  от Лубянки до Киевской. Да и вообще денёк хороший :)", "lat" : "55.75984283", "long" : "37.62800217", "name" : "VladimirZaharow", "center" : 1, "dateNumber" : 1377561600000 },
{ "_id" : { "$oid" : "5770f18dec2c5aec10d81ac9" }, "date" : "27.08.2013", "body" : "хорошая прогулка была по главной площаде страны,  но народу пиздец много (извините). Если в общем,  то одного раза хватило,  больше не поеду.", "lat" : "55.7542645", "long" : "37.62019157", "name" : "Julia T.", "center" : 1, "dateNumber" : 1377561600000 },
{ "_id" : { "$oid" : "5770f18dec2c5aec10d81aca" }, "date" : "28.08.2013", "body" : "Больша?я Су?харевская площадь — одна из центральных площадей Москвы,  часть Садового кольца,  расположена в.. http://vk.cc/1MbAyj", "lat" : "55.772445", "long" : "37.634887", "name" : "shishova_rita", "center" : 1, "dateNumber" : 1377648000000 },
{ "_id" : { "$oid" : "5770f18dec2c5aec10d81acb" }, "date" : "29.08.2013", "body" : "Сердце нашей родины!!!!", "lat" : "55.7542645", "long" : "37.62019157", "name" : "Михаил З.", "center" : 1, "dateNumber" : 1377734400000 },
{ "_id" : { "$oid" : "5770f18dec2c5aec10d81acc" }, "date" : "30.08.2013", "body" : "AleksSoldier давай ко мне на 82 участок (ЦАО,  Пресненский)? Я ПРГ))", "lat" : "55.761596", "long" : "37.571471", "name" : "estelutulien", "center" : 1, "dateNumber" : 1377820800000 },
{ "_id" : { "$oid" : "5770f18dec2c5aec10d81acd" }, "date" : "31.08.2013", "body" : "\"В номинации \"\"Жопа мира\"\"побеждает теперь Люблино\"", "lat" : "55.674179", "long" : "37.779916", "name" : "He is Wolf", "center" : 0, "dateNumber" : 1377907200000 },
{ "_id" : { "$oid" : "5770f18dec2c5aec10d81ace" }, "date" : "31.08.2013", "body" : "Москва. Нескучный сад. / Самый большой и старый парк в центре города. Обилие парковой культуры,  чудесного леса,  не.. http://vk.cc/1MH31F", "lat" : "55.71611", "long" : "37.586", "name" : "varsators", "center" : 1, "dateNumber" : 1377907200000 },
{ "_id" : { "$oid" : "5770f18dec2c5aec10d81acf" }, "date" : "31.08.2013", "body" : "Гуляем по цветному бульвару. Прошли весь центр уже. Куплен прекрасный блокнотик и книжка самого интересного автора. К бжд готова ахаха", "lat" : "55.77188778", "long" : "37.62073992", "name" : "gordeevanas", "center" : 1, "dateNumber" : 1377907200000 },
{ "_id" : { "$oid" : "5770f18dec2c5aec10d81ad0" }, "date" : "01.09.2013", "body" : "ta_pette сейчас очень хочется на Чистые пруды и походить по переулкам старой Москвы)", "lat" : "55.764931", "long" : "37.638429", "name" : "alenalinkova", "center" : 1, "dateNumber" : 1377993600000 },
{ "_id" : { "$oid" : "5770f18dec2c5aec10d81ad1" }, "date" : "01.09.2013", "body" : "Прекрасные парки,  свежий воздух и просто свобода от дел", "lat" : "55.744", "long" : "37.586389", "name" : "Андрей В.", "center" : 0, "dateNumber" : 1377993600000 },
{ "_id" : { "$oid" : "5770f18dec2c5aec10d81ad2" }, "date" : "02.09.2013", "body" : "Прекрасный понедельник я провожу на золотом острове. Кто в центре,  давайте пообедаем?)", "lat" : "55.744167", "long" : "37.61", "name" : "Dionis Shkvarev", "center" : 1, "dateNumber" : 1378080000000 },
{ "_id" : { "$oid" : "5770f18dec2c5aec10d81ad3" }, "date" : "02.09.2013", "body" : "Сходить на ночной сеанс в кино,  поесть пиццу в центре...а что еще делать ночью в Москве? ..", "lat" : "55.727667", "long" : "37.635778", "name" : "Света Бискуп", "center" : 1, "dateNumber" : 1378080000000 },
{ "_id" : { "$oid" : "5770f18dec2c5aec10d81ad4" }, "date" : "03.09.2013", "body" : "Хорошо работать в центре... #москва #столешники #поранаработу #красота #утро #лавочка #фонарь #цветы #осень @ Столешников переулок http://instagram.com/p/dySMMPrN5j/", "lat" : "55.7625", "long" : "37.613611", "name" : "Иванна Петрова", "center" : 1, "dateNumber" : 1378166400000 },
{ "_id" : { "$oid" : "5770f18dec2c5aec10d81ad5" }, "date" : "03.09.2013", "body" : "в центре.", "lat" : "55.755972", "long" : "37.614889", "name" : "Дмитрий Алексеевич", "center" : 1, "dateNumber" : 1378166400000 },
{ "_id" : { "$oid" : "5770f18dec2c5aec10d81ad6" }, "date" : "03.09.2013", "body" : "Работать в центре города все де приятно )))", "lat" : "55.719722", "long" : "37.634722", "name" : "Инна Рубанова", "center" : 1, "dateNumber" : 1378166400000 },
{ "_id" : { "$oid" : "5770f18dec2c5aec10d81ad7" }, "date" : "03.09.2013", "body" : "\"Южное Чертаново. Называю это ласково - \"\"у черта на куличках\"\" :-) А вы все также где-то недалеко от автозаводской?\"", "lat" : "55.588562", "long" : "37.603065", "name" : "kimberley", "center" : 0, "dateNumber" : 1378166400000 },
{ "_id" : { "$oid" : "5770f18dec2c5aec10d81ad8" }, "date" : "04.09.2013", "body" : "#жилье По плотности застройки в столице лидирует Пресненский район в ЦАО: Итак,  са... http://bit.ly/15Zi6FQ&nbsp; #строительство", "lat" : "55.760205", "long" : "37.57709", "name" : "vehybehuqyvo", "center" : 1, "dateNumber" : 1378252800000 },
{ "_id" : { "$oid" : "5770f18dec2c5aec10d81ad9" }, "date" : "04.09.2013", "body" : "http://drgeorge.ru/&nbsp; Стоматология доктора Джорджа на Новослободской. Стоматология в ЦАО (Новослободская,  Менделеевская)", "lat" : "55.782058", "long" : "37.598794", "name" : "Russian_BF", "center" : 1, "dateNumber" : 1378252800000 },
{ "_id" : { "$oid" : "5770f18dec2c5aec10d81ada" }, "date" : "04.09.2013", "body" : "http://drgeorge.ru/&nbsp; Стоматология доктора Джорджа на Новослободской. Стоматология в ЦАО (Новослободская,  Менделеевская)", "lat" : "55.785194", "long" : "37.595611", "name" : "Russian_BF", "center" : 1, "dateNumber" : 1378252800000 },
{ "_id" : { "$oid" : "5770f18dec2c5aec10d81adb" }, "date" : "04.09.2013", "body" : "#МСФО лучше учите в центре на #Тверская - я там работаю,  классно,  Мне нравится,  поскольку я и живу на #Тверская", "lat" : "55.763889", "long" : "37.606389", "name" : "Jew770", "center" : 1, "dateNumber" : 1378252800000 },
{ "_id" : { "$oid" : "5770f18dec2c5aec10d81add" }, "date" : "04.09.2013", "body" : "На большей части Бульварного кольца нельзя будет припарковаться даже за плату: В центре Москвы ужесточат правила парковки: новых мест…", "lat" : "55.767889", "long" : "37.61636", "name" : "tvitervip", "center" : 1, "dateNumber" : 1378252800000 },
{ "_id" : { "$oid" : "5770f18dec2c5aec10d81ade" }, "date" : "05.09.2013", "body" : "Речной вокзал это жопа Москвы но ещё часто бываю на Тверской Театральной Алтуфьево и Воробьёвы горы)", "lat" : "55.854722", "long" : "37.476111", "name" : "_Lili1D_", "center" : 0, "dateNumber" : 1378339200000 },
{ "_id" : { "$oid" : "5770f18dec2c5aec10d81adf" }, "date" : "05.09.2013", "body" : "биберево,  тоже жопа Москвы:DD", "lat" : "55.89612", "long" : "37.612784", "name" : "wibllywoblly", "center" : 0, "dateNumber" : 1378339200000 },
{ "_id" : { "$oid" : "5770f18dec2c5aec10d81ae0" }, "date" : "05.09.2013", "body" : "ну нифига везучая,  прям в премьеру o_O бунинская аллея,  жопа москвы. А ты?", "lat" : "55.538056", "long" : "37.515833", "name" : "MaryWallflower", "center" : 0, "dateNumber" : 1378339200000 },
{ "_id" : { "$oid" : "5770f18dec2c5aec10d81ae1" }, "date" : "06.09.2013", "body" : "Люблю когда приезжают погостить друзья детства... А еще приятнее открывать с ними что то новое)) вот и сейчас-новый ресторан в центре столицы... Кристиан называется ))) и если авторский салат из арбуза,  корна,  физалиса и огурцов был крайне странным,  то арбузное мороженое никого равнодушным не оставит))) А еще,  улыбнула подача хлеба,  с блюдцем с маслом и солью-прямо ностальжи из детства))))", "lat" : "55.749444", "long" : "37.563889", "name" : "Дмитрий Черняев", "center" : 1, "dateNumber" : 1378425600000 },
{ "_id" : { "$oid" : "5770f18dec2c5aec10d81ae2" }, "date" : "06.09.2013", "body" : "I'm at Старый Город (Москва) http://4sq.com/15IvJ8a", "lat" : "55.734778", "long" : "37.567889", "name" : "yanshba", "center" : 1, "dateNumber" : 1378425600000 },
{ "_id" : { "$oid" : "5770f18dec2c5aec10d81ae3" }, "date" : "06.09.2013", "body" : "Не нравится дороги в саратове? Посмотрите что в Москве,  да в центре города,  у третьяковки=)) #обожекакиедороги @ Лаврушинский переулок http://instagram.com/p/d6hQsIiyNv/", "lat" : "55.741389", "long" : "37.621111", "name" : "Павел Смирнов", "center" : 1, "dateNumber" : 1378425600000 },
{ "_id" : { "$oid" : "5770f18dec2c5aec10d81ae4" }, "date" : "06.09.2013", "body" : "Чистая,  уютная. Персонал вообще супер. В центре.", "lat" : "55.756944", "long" : "37.652222", "name" : "Василий Л.", "center" : 1, "dateNumber" : 1378425600000 },
{ "_id" : { "$oid" : "5770f18dec2c5aec10d81ae5" }, "date" : "06.09.2013", "body" : "I'm at Центральная площадь Замоскворечья (Москва) http://4sq.com/1aTRCcK", "lat" : "55.741111", "long" : "37.629444", "name" : "datura_alien", "center" : 1, "dateNumber" : 1378425600000 },
{ "_id" : { "$oid" : "5770f18dec2c5aec10d81ae6" }, "date" : "06.09.2013", "body" : "Троллейбусы встали в центре Москвы из-за ДТП: Из-за аварии на 1-й Дубровской улице ЦАО Москвы задерживается троллейбусов 26-го маршрута. В…", "lat" : "55.725111", "long" : "37.671111", "name" : "TrueWhiteList", "center" : 1, "dateNumber" : 1378425600000 },
{ "_id" : { "$oid" : "5770f18dec2c5aec10d81ae7" }, "date" : "06.09.2013", "body" : "Кто сегодня в центре и на машине - тот лох", "lat" : "55.76375", "long" : "37.636", "name" : "Анна Стриженкова", "center" : 1, "dateNumber" : 1378425600000 },
{ "_id" : { "$oid" : "5770f18dec2c5aec10d81ae8" }, "date" : "06.09.2013", "body" : "Полиция задержала водителей,  открывших стрельбу на Поварской улице: Инцидент произошёл в центре Москвы днём http://dlvr.it/3wPWxP", "lat" : "55.755667", "long" : "37.590833", "name" : "zenka1212", "center" : 1, "dateNumber" : 1378425600000 },
{ "_id" : { "$oid" : "5770f18dec2c5aec10d81ae9" }, "date" : "06.09.2013", "body" : "я почти Москва. Химки - примерно минут 40 до Москвы. просто в моем городе вряд ли есть твиттерские ):", "lat" : "55.889167", "long" : "37.445", "name" : "сахар в крови", "center" : 0, "dateNumber" : 1378425600000 },
{ "_id" : { "$oid" : "5770f18dec2c5aec10d81aea" }, "date" : "06.09.2013", "body" : "Никогда не думал,  что с днищенского района Кузьминки кто-то есть,  но благодаря тэгу", "lat" : "55.69869", "long" : "37.775101", "name" : "московский бегемот.", "center" : 0, "dateNumber" : 1378425600000 },
{ "_id" : { "$oid" : "5770f18dec2c5aec10d81adc" },